{
  "updatedAt": "2026-05-09T21:00:13.505Z",
  "data": [
    {
      "TrainId": 1,
      "stations": [
        {
          "TrainNumber": 1,
          "TrainName": "Khyber Mail 1UP",
          "StationId": 129,
          "ArrivalTime": null,
          "IsDayChanged": null,
          "DayCount": null,
          "DepartureTime": "22:15:00",
          "IsUp": 1,
          "OrderNumber": 1,
          "StationName": "Karachi Cantt",
          "Latitude": 24.843004,
          "Longitude": 67.040354
        },
        {
          "TrainNumber": 1,
          "TrainName": "Khyber Mail 1UP",
          "StationId": 128,
          "ArrivalTime": "22:34:00",
          "IsDayChanged": null,
          "DayCount": null,
          "DepartureTime": "22:36:00",
          "IsUp": 1,
          "OrderNumber": 2,
          "StationName": "Drigh Road",
          "Latitude": 24.886232,
          "Longitude": 67.125518
        },
        {
          "TrainNumber": 1,
          "TrainName": "Khyber Mail 1UP",
          "StationId": 127,
          "ArrivalTime": "22:56:00",
          "IsDayChanged": null,
          "DayCount": null,
          "DepartureTime": "22:58:00",
          "IsUp": 1,
          "OrderNumber": 3,
          "StationName": "Landhi Jn.",
          "Latitude": 24.850925,
          "Longitude": 67.211924
        },
        {
          "TrainNumber": 1,
          "TrainName": "Khyber Mail 1UP",
          "StationId": 126,
          "ArrivalTime": "01:00:00",
          "IsDayChanged": 1,
          "DayCount": 1,
          "DepartureTime": "01:10:00",
          "IsUp": 1,
          "OrderNumber": 4,
          "StationName": "Hyderabad Jn",
          "Latitude": 25.381869,
          "Longitude": 68.373587
        },
        {
          "TrainNumber": 1,
          "TrainName": "Khyber Mail 1UP",
          "StationId": 123,
          "ArrivalTime": "02:43:00",
          "IsDayChanged": 1,
          "DayCount": 1,
          "DepartureTime": "02:45:00",
          "IsUp": 1,
          "OrderNumber": 5,
          "StationName": "Nawabshah Jn.",
          "Latitude": 26.245775,
          "Longitude": 68.411685
        },
        {
          "TrainNumber": 1,
          "TrainName": "Khyber Mail 1UP",
          "StationId": 121,
          "ArrivalTime": "04:42:00",
          "IsDayChanged": 1,
          "DayCount": 1,
          "DepartureTime": "04:44:00",
          "IsUp": 1,
          "OrderNumber": 6,
          "StationName": "Khairpur",
          "Latitude": 27.519046,
          "Longitude": 68.737381
        },
        {
          "TrainNumber": 1,
          "TrainName": "Khyber Mail 1UP",
          "StationId": 120,
          "ArrivalTime": "05:30:00",
          "IsDayChanged": 1,
          "DayCount": 1,
          "DepartureTime": "05:55:00",
          "IsUp": 1,
          "OrderNumber": 7,
          "StationName": "Rohri Jn.",
          "Latitude": 27.685755,
          "Longitude": 68.896448
        },
        {
          "TrainNumber": 1,
          "TrainName": "Khyber Mail 1UP",
          "StationId": 156,
          "ArrivalTime": "06:25:00",
          "IsDayChanged": 1,
          "DayCount": 1,
          "DepartureTime": "06:3:00",
          "IsUp": 1,
          "OrderNumber": 8,
          "StationName": "Pano Akil",
          "Latitude": 27.850791,
          "Longitude": 69.115156
        },
        {
          "TrainNumber": 1,
          "TrainName": "Khyber Mail 1UP",
          "StationId": 136,
          "ArrivalTime": "06:51:00",
          "IsDayChanged": 1,
          "DayCount": 1,
          "DepartureTime": "06:53:00",
          "IsUp": 1,
          "OrderNumber": 9,
          "StationName": "Ghotki",
          "Latitude": 27.993889,
          "Longitude": 69.313555
        },
        {
          "TrainNumber": 1,
          "TrainName": "Khyber Mail 1UP",
          "StationId": 157,
          "ArrivalTime": "07:15:00",
          "IsDayChanged": 1,
          "DayCount": 1,
          "DepartureTime": "07:17:00",
          "IsUp": 1,
          "OrderNumber": 10,
          "StationName": "Mirpur Mathelo",
          "Latitude": 28.019205,
          "Longitude": 69.552623
        },
        {
          "TrainNumber": 1,
          "TrainName": "Khyber Mail 1UP",
          "StationId": 158,
          "ArrivalTime": "07:33:00",
          "IsDayChanged": 1,
          "DayCount": 1,
          "DepartureTime": "07:35:00",
          "IsUp": 1,
          "OrderNumber": 11,
          "StationName": "Daharki",
          "Latitude": 28.045455,
          "Longitude": 69.687734
        },
        {
          "TrainNumber": 1,
          "TrainName": "Khyber Mail 1UP",
          "StationId": 138,
          "ArrivalTime": "08:12:00",
          "IsDayChanged": 1,
          "DayCount": 1,
          "DepartureTime": "08:14:00",
          "IsUp": 1,
          "OrderNumber": 12,
          "StationName": "Sadiqabad",
          "Latitude": 28.30212,
          "Longitude": 70.128168
        },
        {
          "TrainNumber": 1,
          "TrainName": "Khyber Mail 1UP",
          "StationId": 119,
          "ArrivalTime": "08:40:00",
          "IsDayChanged": 1,
          "DayCount": 1,
          "DepartureTime": "08:44:00",
          "IsUp": 1,
          "OrderNumber": 13,
          "StationName": "Rahim Yar Khan",
          "Latitude": 28.422481,
          "Longitude": 70.30298
        },
        {
          "TrainNumber": 1,
          "TrainName": "Khyber Mail 1UP",
          "StationId": 118,
          "ArrivalTime": "09:35:00",
          "IsDayChanged": 1,
          "DayCount": 1,
          "DepartureTime": "09:40:00",
          "IsUp": 1,
          "OrderNumber": 14,
          "StationName": "Khanpur Jn.",
          "Latitude": 28.64007281,
          "Longitude": 70.64912796
        },
        {
          "TrainNumber": 1,
          "TrainName": "Khyber Mail 1UP",
          "StationId": 159,
          "ArrivalTime": "10:13:00",
          "IsDayChanged": 1,
          "DayCount": 1,
          "DepartureTime": "10:15:00",
          "IsUp": 1,
          "OrderNumber": 15,
          "StationName": "Liaquatpur",
          "Latitude": 28.936584,
          "Longitude": 70.946109
        },
        {
          "TrainNumber": 1,
          "TrainName": "Khyber Mail 1UP",
          "StationId": 160,
          "ArrivalTime": "10:45:00",
          "IsDayChanged": 1,
          "DayCount": 1,
          "DepartureTime": "10:47:00",
          "IsUp": 1,
          "OrderNumber": 16,
          "StationName": "Dera Nawab Sahib",
          "Latitude": 29.152536,
          "Longitude": 71.255436
        },
        {
          "TrainNumber": 1,
          "TrainName": "Khyber Mail 1UP",
          "StationId": 161,
          "ArrivalTime": "11:20:00",
          "IsDayChanged": 1,
          "DayCount": 1,
          "DepartureTime": "11:40:00",
          "IsUp": 1,
          "OrderNumber": 17,
          "StationName": "Samasata Jn",
          "Latitude": 29.348668,
          "Longitude": 71.547347
        },
        {
          "TrainNumber": 1,
          "TrainName": "Khyber Mail 1UP",
          "StationId": 117,
          "ArrivalTime": "11:55:00",
          "IsDayChanged": 1,
          "DayCount": 1,
          "DepartureTime": "12:00:00",
          "IsUp": 1,
          "OrderNumber": 18,
          "StationName": "Bahawalpur",
          "Latitude": 29.402937,
          "Longitude": 71.65158
        },
        {
          "TrainNumber": 1,
          "TrainName": "Khyber Mail 1UP",
          "StationId": 146,
          "ArrivalTime": "12:22:00",
          "IsDayChanged": 1,
          "DayCount": 1,
          "DepartureTime": "12:24:00",
          "IsUp": 1,
          "OrderNumber": 19,
          "StationName": "Lodhran Jn",
          "Latitude": 29.538817,
          "Longitude": 71.623284
        },
        {
          "TrainNumber": 1,
          "TrainName": "Khyber Mail 1UP",
          "StationId": 162,
          "ArrivalTime": "12:58:00",
          "IsDayChanged": 1,
          "DayCount": 1,
          "DepartureTime": "13:00:00",
          "IsUp": 1,
          "OrderNumber": 20,
          "StationName": "Shujabad",
          "Latitude": 29.873165,
          "Longitude": 71.324526
        },
        {
          "TrainNumber": 1,
          "TrainName": "Khyber Mail 1UP",
          "StationId": 116,
          "ArrivalTime": "13:30:00",
          "IsDayChanged": 1,
          "DayCount": 1,
          "DepartureTime": "13:40:00",
          "IsUp": 1,
          "OrderNumber": 21,
          "StationName": "Multan Cantt",
          "Latitude": 30.180694,
          "Longitude": 71.446741
        },
        {
          "TrainNumber": 1,
          "TrainName": "Khyber Mail 1UP",
          "StationId": 115,
          "ArrivalTime": "14:25:00",
          "IsDayChanged": 1,
          "DayCount": 1,
          "DepartureTime": "14:30:00",
          "IsUp": 1,
          "OrderNumber": 22,
          "StationName": "Khanewal Jn",
          "Latitude": 30.30932445,
          "Longitude": 71.92858071
        },
        {
          "TrainNumber": 1,
          "TrainName": "Khyber Mail 1UP",
          "StationId": 114,
          "ArrivalTime": "15:02:00",
          "IsDayChanged": 1,
          "DayCount": 1,
          "DepartureTime": "15:04:00",
          "IsUp": 1,
          "OrderNumber": 23,
          "StationName": "Mian Channu",
          "Latitude": 30.437812,
          "Longitude": 72.358115
        },
        {
          "TrainNumber": 1,
          "TrainName": "Khyber Mail 1UP",
          "StationId": 113,
          "ArrivalTime": "15:30:00",
          "IsDayChanged": 1,
          "DayCount": 1,
          "DepartureTime": "15:32:00",
          "IsUp": 1,
          "OrderNumber": 24,
          "StationName": "Chichawatni",
          "Latitude": 30.535164,
          "Longitude": 72.690116
        },
        {
          "TrainNumber": 1,
          "TrainName": "Khyber Mail 1UP",
          "StationId": 112,
          "ArrivalTime": "16:15:00",
          "IsDayChanged": 1,
          "DayCount": 1,
          "DepartureTime": "16:20:00",
          "IsUp": 1,
          "OrderNumber": 25,
          "StationName": "Sahiwal",
          "Latitude": 30.654502,
          "Longitude": 73.101085
        },
        {
          "TrainNumber": 1,
          "TrainName": "Khyber Mail 1UP",
          "StationId": 111,
          "ArrivalTime": "16:50:00",
          "IsDayChanged": 1,
          "DayCount": 1,
          "DepartureTime": "16:52:00",
          "IsUp": 1,
          "OrderNumber": 26,
          "StationName": "Okara",
          "Latitude": 30.80542535,
          "Longitude": 73.44433495
        },
        {
          "TrainNumber": 1,
          "TrainName": "Khyber Mail 1UP",
          "StationId": 110,
          "ArrivalTime": "17:24:00",
          "IsDayChanged": 1,
          "DayCount": 1,
          "DepartureTime": "17:26:00",
          "IsUp": 1,
          "OrderNumber": 27,
          "StationName": "Pattoki",
          "Latitude": 31.019176,
          "Longitude": 73.853793
        },
        {
          "TrainNumber": 1,
          "TrainName": "Khyber Mail 1UP",
          "StationId": 164,
          "ArrivalTime": "17:48:00",
          "IsDayChanged": 1,
          "DayCount": 1,
          "DepartureTime": "17:50:00",
          "IsUp": 1,
          "OrderNumber": 28,
          "StationName": "Kot Radha Kishan",
          "Latitude": 31.169717,
          "Longitude": 74.09754
        },
        {
          "TrainNumber": 1,
          "TrainName": "Khyber Mail 1UP",
          "StationId": 109,
          "ArrivalTime": "18:10:00",
          "IsDayChanged": 1,
          "DayCount": 1,
          "DepartureTime": "18:15:00",
          "IsUp": 1,
          "OrderNumber": 29,
          "StationName": "Raiwind Jn.",
          "Latitude": 31.251116,
          "Longitude": 74.222751
        },
        {
          "TrainNumber": 1,
          "TrainName": "Khyber Mail 1UP",
          "StationId": 165,
          "ArrivalTime": "18:45:00",
          "IsDayChanged": 1,
          "DayCount": 1,
          "DepartureTime": "18:47:00",
          "IsUp": 1,
          "OrderNumber": 30,
          "StationName": "Kot Lakhpat",
          "Latitude": 31.459583,
          "Longitude": 74.338598
        },
        {
          "TrainNumber": 1,
          "TrainName": "Khyber Mail 1UP",
          "StationId": 171,
          "ArrivalTime": "19:08:00",
          "IsDayChanged": 1,
          "DayCount": 1,
          "DepartureTime": "19:10:00",
          "IsUp": 1,
          "OrderNumber": 31,
          "StationName": "Lahore Cantt",
          "Latitude": 31.530458,
          "Longitude": 74.361018
        },
        {
          "TrainNumber": 1,
          "TrainName": "Khyber Mail 1UP",
          "StationId": 108,
          "ArrivalTime": "19:30:00",
          "IsDayChanged": 1,
          "DayCount": 1,
          "DepartureTime": "20:00:00",
          "IsUp": 1,
          "OrderNumber": 32,
          "StationName": "Lahore Jn.",
          "Latitude": 31.57769965,
          "Longitude": 74.33759112
        },
        {
          "TrainNumber": 1,
          "TrainName": "Khyber Mail 1UP",
          "StationId": 107,
          "ArrivalTime": "21:15:00",
          "IsDayChanged": 1,
          "DayCount": 1,
          "DepartureTime": "21:20:00",
          "IsUp": 1,
          "OrderNumber": 33,
          "StationName": "Gujranwala",
          "Latitude": 32.177839,
          "Longitude": 74.186769
        },
        {
          "TrainNumber": 1,
          "TrainName": "Khyber Mail 1UP",
          "StationId": 106,
          "ArrivalTime": "21:45:00",
          "IsDayChanged": 1,
          "DayCount": 1,
          "DepartureTime": "21:47:00",
          "IsUp": 1,
          "OrderNumber": 34,
          "StationName": "Wazirabad Jn",
          "Latitude": 32.44580849,
          "Longitude": 74.11214948
        },
        {
          "TrainNumber": 1,
          "TrainName": "Khyber Mail 1UP",
          "StationId": 105,
          "ArrivalTime": "22:03:00",
          "IsDayChanged": 1,
          "DayCount": 1,
          "DepartureTime": "22:05:00",
          "IsUp": 1,
          "OrderNumber": 35,
          "StationName": "Gujrat",
          "Latitude": 32.563616,
          "Longitude": 74.063783
        },
        {
          "TrainNumber": 1,
          "TrainName": "Khyber Mail 1UP",
          "StationId": 104,
          "ArrivalTime": "22:30:00",
          "IsDayChanged": 1,
          "DayCount": 1,
          "DepartureTime": "22:33:00",
          "IsUp": 1,
          "OrderNumber": 36,
          "StationName": "Lala Musa Jn.",
          "Latitude": 32.700917,
          "Longitude": 73.948173
        },
        {
          "TrainNumber": 1,
          "TrainName": "Khyber Mail 1UP",
          "StationId": 103,
          "ArrivalTime": "23:04:00",
          "IsDayChanged": 1,
          "DayCount": 1,
          "DepartureTime": "23:06:00",
          "IsUp": 1,
          "OrderNumber": 37,
          "StationName": "Jhelum",
          "Latitude": 32.92957,
          "Longitude": 73.726029
        },
        {
          "TrainNumber": 1,
          "TrainName": "Khyber Mail 1UP",
          "StationId": 101,
          "ArrivalTime": "01:20:00",
          "IsDayChanged": 1,
          "DayCount": 2,
          "DepartureTime": "01:50:00",
          "IsUp": 1,
          "OrderNumber": 38,
          "StationName": "Rawalpindi",
          "Latitude": 33.604268,
          "Longitude": 73.047277
        },
        {
          "TrainNumber": 1,
          "TrainName": "Khyber Mail 1UP",
          "StationId": 166,
          "ArrivalTime": "03:12:00",
          "IsDayChanged": 1,
          "DayCount": 2,
          "DepartureTime": "03:16:00",
          "IsUp": 1,
          "OrderNumber": 39,
          "StationName": "Attock City Jn",
          "Latitude": 33.774818,
          "Longitude": 72.351956
        },
        {
          "TrainNumber": 1,
          "TrainName": "Khyber Mail 1UP",
          "StationId": 167,
          "ArrivalTime": "03:52:00",
          "IsDayChanged": 1,
          "DayCount": 2,
          "DepartureTime": "03:56:00",
          "IsUp": 1,
          "OrderNumber": 40,
          "StationName": "Jahangira Road",
          "Latitude": 33.958274,
          "Longitude": 72.197014
        },
        {
          "TrainNumber": 1,
          "TrainName": "Khyber Mail 1UP",
          "StationId": 168,
          "ArrivalTime": "04:14:00",
          "IsDayChanged": 1,
          "DayCount": 2,
          "DepartureTime": "04:18:00",
          "IsUp": 1,
          "OrderNumber": 41,
          "StationName": "Nowshera Jn",
          "Latitude": 34.00036,
          "Longitude": 72.005878
        },
        {
          "TrainNumber": 1,
          "TrainName": "Khyber Mail 1UP",
          "StationId": 169,
          "ArrivalTime": "05:00:00",
          "IsDayChanged": 1,
          "DayCount": 2,
          "DepartureTime": "05:04:00",
          "IsUp": 1,
          "OrderNumber": 42,
          "StationName": "Peshawar City",
          "Latitude": 34.017994,
          "Longitude": 71.586939
        },
        {
          "TrainNumber": 1,
          "TrainName": "Khyber Mail 1UP",
          "StationId": 170,
          "ArrivalTime": "05:15:00",
          "IsDayChanged": 1,
          "DayCount": 2,
          "DepartureTime": null,
          "IsUp": 1,
          "OrderNumber": 43,
          "StationName": "Peshawar Cantt",
          "Latitude": 34.00209,
          "Longitude": 71.550425
        }
      ]
    },
    {
      "TrainId": 2,
      "stations": [
        {
          "TrainNumber": 2,
          "TrainName": "Khyber Mail 2DN",
          "StationId": 170,
          "ArrivalTime": null,
          "IsDayChanged": 0,
          "DayCount": 0,
          "DepartureTime": "22:00:00",
          "IsUp": 0,
          "OrderNumber": 1,
          "StationName": "Peshawar Cantt",
          "Latitude": 34.00209,
          "Longitude": 71.550425
        },
        {
          "TrainNumber": 2,
          "TrainName": "Khyber Mail 2DN",
          "StationId": 169,
          "ArrivalTime": "22:09:00",
          "IsDayChanged": 0,
          "DayCount": 0,
          "DepartureTime": "22:11:00",
          "IsUp": 0,
          "OrderNumber": 2,
          "StationName": "Peshawar City",
          "Latitude": 34.017994,
          "Longitude": 71.586939
        },
        {
          "TrainNumber": 2,
          "TrainName": "Khyber Mail 2DN",
          "StationId": 168,
          "ArrivalTime": "22:41:00",
          "IsDayChanged": 0,
          "DayCount": 0,
          "DepartureTime": "22:45:00",
          "IsUp": 0,
          "OrderNumber": 3,
          "StationName": "Nowshera Jn",
          "Latitude": 34.00036,
          "Longitude": 72.005878
        },
        {
          "TrainNumber": 2,
          "TrainName": "Khyber Mail 2DN",
          "StationId": 167,
          "ArrivalTime": "23:01:00",
          "IsDayChanged": 0,
          "DayCount": 0,
          "DepartureTime": "23:05:00",
          "IsUp": 0,
          "OrderNumber": 4,
          "StationName": "Jahangira Road",
          "Latitude": 33.958274,
          "Longitude": 72.197014
        },
        {
          "TrainNumber": 2,
          "TrainName": "Khyber Mail 2DN",
          "StationId": 166,
          "ArrivalTime": "23:41:00",
          "IsDayChanged": 0,
          "DayCount": 0,
          "DepartureTime": "23:45:00",
          "IsUp": 0,
          "OrderNumber": 5,
          "StationName": "Attock City Jn",
          "Latitude": 33.774818,
          "Longitude": 72.351956
        },
        {
          "TrainNumber": 2,
          "TrainName": "Khyber Mail 2DN",
          "StationId": 101,
          "ArrivalTime": "01:25:00",
          "IsDayChanged": 1,
          "DayCount": 1,
          "DepartureTime": "01:50:00",
          "IsUp": 0,
          "OrderNumber": 6,
          "StationName": "Rawalpindi",
          "Latitude": 33.604268,
          "Longitude": 73.047277
        },
        {
          "TrainNumber": 2,
          "TrainName": "Khyber Mail 2DN",
          "StationId": 103,
          "ArrivalTime": "03:48:00",
          "IsDayChanged": 1,
          "DayCount": 1,
          "DepartureTime": "03:50:00",
          "IsUp": 0,
          "OrderNumber": 7,
          "StationName": "Jhelum",
          "Latitude": 32.92957,
          "Longitude": 73.726029
        },
        {
          "TrainNumber": 2,
          "TrainName": "Khyber Mail 2DN",
          "StationId": 104,
          "ArrivalTime": "04:40:00",
          "IsDayChanged": 1,
          "DayCount": 1,
          "DepartureTime": "04:45:00",
          "IsUp": 0,
          "OrderNumber": 8,
          "StationName": "Lala Musa Jn.",
          "Latitude": 32.700917,
          "Longitude": 73.948173
        },
        {
          "TrainNumber": 2,
          "TrainName": "Khyber Mail 2DN",
          "StationId": 105,
          "ArrivalTime": "05:02:00",
          "IsDayChanged": 1,
          "DayCount": 1,
          "DepartureTime": "05:04:00",
          "IsUp": 0,
          "OrderNumber": 9,
          "StationName": "Gujrat",
          "Latitude": 32.563616,
          "Longitude": 74.063783
        },
        {
          "TrainNumber": 2,
          "TrainName": "Khyber Mail 2DN",
          "StationId": 106,
          "ArrivalTime": "05:20:00",
          "IsDayChanged": 1,
          "DayCount": 1,
          "DepartureTime": "05:23:00",
          "IsUp": 0,
          "OrderNumber": 10,
          "StationName": "Wazirabad Jn",
          "Latitude": 32.44580849,
          "Longitude": 74.11214948
        },
        {
          "TrainNumber": 2,
          "TrainName": "Khyber Mail 2DN",
          "StationId": 107,
          "ArrivalTime": "05:50:00",
          "IsDayChanged": 1,
          "DayCount": 1,
          "DepartureTime": "05:55:00",
          "IsUp": 0,
          "OrderNumber": 11,
          "StationName": "Gujranwala",
          "Latitude": 32.177839,
          "Longitude": 74.186769
        },
        {
          "TrainNumber": 2,
          "TrainName": "Khyber Mail 2DN",
          "StationId": 108,
          "ArrivalTime": "07:00:00",
          "IsDayChanged": 1,
          "DayCount": 1,
          "DepartureTime": "07:35:00",
          "IsUp": 0,
          "OrderNumber": 12,
          "StationName": "Lahore Jn.",
          "Latitude": 31.57769965,
          "Longitude": 74.33759112
        },
        {
          "TrainNumber": 2,
          "TrainName": "Khyber Mail 2DN",
          "StationId": 171,
          "ArrivalTime": "07:48:00",
          "IsDayChanged": 1,
          "DayCount": 1,
          "DepartureTime": "07:50:00",
          "IsUp": 0,
          "OrderNumber": 13,
          "StationName": "Lahore Cantt",
          "Latitude": 31.530458,
          "Longitude": 74.361018
        },
        {
          "TrainNumber": 2,
          "TrainName": "Khyber Mail 2DN",
          "StationId": 165,
          "ArrivalTime": "08:02:00",
          "IsDayChanged": 1,
          "DayCount": 1,
          "DepartureTime": "08:04:00",
          "IsUp": 0,
          "OrderNumber": 14,
          "StationName": "Kot Lakhpat",
          "Latitude": 31.459583,
          "Longitude": 74.338598
        },
        {
          "TrainNumber": 2,
          "TrainName": "Khyber Mail 2DN",
          "StationId": 109,
          "ArrivalTime": "08:25:00",
          "IsDayChanged": 1,
          "DayCount": 1,
          "DepartureTime": "08:30:00",
          "IsUp": 0,
          "OrderNumber": 15,
          "StationName": "Raiwind Jn.",
          "Latitude": 31.251116,
          "Longitude": 74.222751
        },
        {
          "TrainNumber": 2,
          "TrainName": "Khyber Mail 2DN",
          "StationId": 164,
          "ArrivalTime": "08:45:00",
          "IsDayChanged": 1,
          "DayCount": 1,
          "DepartureTime": "08:47:00",
          "IsUp": 0,
          "OrderNumber": 16,
          "StationName": "Kot Radha Kishan",
          "Latitude": 31.169717,
          "Longitude": 74.09754
        },
        {
          "TrainNumber": 2,
          "TrainName": "Khyber Mail 2DN",
          "StationId": 110,
          "ArrivalTime": "09:10:00",
          "IsDayChanged": 1,
          "DayCount": 1,
          "DepartureTime": "09:15:00",
          "IsUp": 0,
          "OrderNumber": 17,
          "StationName": "Pattoki",
          "Latitude": 31.019176,
          "Longitude": 73.853793
        },
        {
          "TrainNumber": 2,
          "TrainName": "Khyber Mail 2DN",
          "StationId": 111,
          "ArrivalTime": "09:58:00",
          "IsDayChanged": 1,
          "DayCount": 1,
          "DepartureTime": "10:00:00",
          "IsUp": 0,
          "OrderNumber": 18,
          "StationName": "Okara",
          "Latitude": 30.80542535,
          "Longitude": 73.44433495
        },
        {
          "TrainNumber": 2,
          "TrainName": "Khyber Mail 2DN",
          "StationId": 112,
          "ArrivalTime": "10:45:00",
          "IsDayChanged": 1,
          "DayCount": 1,
          "DepartureTime": "10:50:00",
          "IsUp": 0,
          "OrderNumber": 19,
          "StationName": "Sahiwal",
          "Latitude": 30.654502,
          "Longitude": 73.101085
        },
        {
          "TrainNumber": 2,
          "TrainName": "Khyber Mail 2DN",
          "StationId": 113,
          "ArrivalTime": "11:21:00",
          "IsDayChanged": 1,
          "DayCount": 1,
          "DepartureTime": "11:23:00",
          "IsUp": 0,
          "OrderNumber": 20,
          "StationName": "Chichawatni",
          "Latitude": 30.535164,
          "Longitude": 72.690116
        },
        {
          "TrainNumber": 2,
          "TrainName": "Khyber Mail 2DN",
          "StationId": 114,
          "ArrivalTime": "11:49:00",
          "IsDayChanged": 1,
          "DayCount": 1,
          "DepartureTime": "11:51:00",
          "IsUp": 0,
          "OrderNumber": 21,
          "StationName": "Mian Channu",
          "Latitude": 30.437812,
          "Longitude": 72.358115
        },
        {
          "TrainNumber": 2,
          "TrainName": "Khyber Mail 2DN",
          "StationId": 115,
          "ArrivalTime": "12:35:00",
          "IsDayChanged": 1,
          "DayCount": 1,
          "DepartureTime": "12:40:00",
          "IsUp": 0,
          "OrderNumber": 22,
          "StationName": "Khanewal Jn",
          "Latitude": 30.30932445,
          "Longitude": 71.92858071
        },
        {
          "TrainNumber": 2,
          "TrainName": "Khyber Mail 2DN",
          "StationId": 116,
          "ArrivalTime": "13:15:00",
          "IsDayChanged": 1,
          "DayCount": 1,
          "DepartureTime": "13:25:00",
          "IsUp": 0,
          "OrderNumber": 23,
          "StationName": "Multan Cantt",
          "Latitude": 30.180694,
          "Longitude": 71.446741
        },
        {
          "TrainNumber": 2,
          "TrainName": "Khyber Mail 2DN",
          "StationId": 162,
          "ArrivalTime": "13:57:00",
          "IsDayChanged": 1,
          "DayCount": 1,
          "DepartureTime": "13:59:00",
          "IsUp": 0,
          "OrderNumber": 24,
          "StationName": "Shujabad",
          "Latitude": 29.873165,
          "Longitude": 71.324526
        },
        {
          "TrainNumber": 2,
          "TrainName": "Khyber Mail 2DN",
          "StationId": 146,
          "ArrivalTime": "14:33:00",
          "IsDayChanged": 1,
          "DayCount": 1,
          "DepartureTime": "14:35:00",
          "IsUp": 0,
          "OrderNumber": 25,
          "StationName": "Lodhran Jn",
          "Latitude": 29.538817,
          "Longitude": 71.623284
        },
        {
          "TrainNumber": 2,
          "TrainName": "Khyber Mail 2DN",
          "StationId": 117,
          "ArrivalTime": "14:55:00",
          "IsDayChanged": 1,
          "DayCount": 1,
          "DepartureTime": "15:00:00",
          "IsUp": 0,
          "OrderNumber": 26,
          "StationName": "Bahawalpur",
          "Latitude": 29.402937,
          "Longitude": 71.65158
        },
        {
          "TrainNumber": 2,
          "TrainName": "Khyber Mail 2DN",
          "StationId": 161,
          "ArrivalTime": "15:15:00",
          "IsDayChanged": 1,
          "DayCount": 1,
          "DepartureTime": "15:35:00",
          "IsUp": 0,
          "OrderNumber": 27,
          "StationName": "Samasata Jn",
          "Latitude": 29.348668,
          "Longitude": 71.547347
        },
        {
          "TrainNumber": 2,
          "TrainName": "Khyber Mail 2DN",
          "StationId": 160,
          "ArrivalTime": "16:04:00",
          "IsDayChanged": 1,
          "DayCount": 1,
          "DepartureTime": "16:06:00",
          "IsUp": 0,
          "OrderNumber": 28,
          "StationName": "Dera Nawab Sahib",
          "Latitude": 29.152536,
          "Longitude": 71.255436
        },
        {
          "TrainNumber": 2,
          "TrainName": "Khyber Mail 2DN",
          "StationId": 159,
          "ArrivalTime": "16:36:00",
          "IsDayChanged": 1,
          "DayCount": 1,
          "DepartureTime": "16:38:00",
          "IsUp": 0,
          "OrderNumber": 29,
          "StationName": "Liaquatpur",
          "Latitude": 28.936584,
          "Longitude": 70.946109
        },
        {
          "TrainNumber": 2,
          "TrainName": "Khyber Mail 2DN",
          "StationId": 118,
          "ArrivalTime": "17:25:00",
          "IsDayChanged": 1,
          "DayCount": 1,
          "DepartureTime": "17:30:00",
          "IsUp": 0,
          "OrderNumber": 30,
          "StationName": "Khanpur Jn.",
          "Latitude": 28.64007281,
          "Longitude": 70.64912796
        },
        {
          "TrainNumber": 2,
          "TrainName": "Khyber Mail 2DN",
          "StationId": 119,
          "ArrivalTime": "18:02:00",
          "IsDayChanged": 1,
          "DayCount": 1,
          "DepartureTime": "18:04:00",
          "IsUp": 0,
          "OrderNumber": 31,
          "StationName": "Rahim Yar Khan",
          "Latitude": 28.422481,
          "Longitude": 70.30298
        },
        {
          "TrainNumber": 2,
          "TrainName": "Khyber Mail 2DN",
          "StationId": 138,
          "ArrivalTime": "18:24:00",
          "IsDayChanged": 1,
          "DayCount": 1,
          "DepartureTime": "18:26:00",
          "IsUp": 0,
          "OrderNumber": 32,
          "StationName": "Sadiqabad",
          "Latitude": 28.30212,
          "Longitude": 70.128168
        },
        {
          "TrainNumber": 2,
          "TrainName": "Khyber Mail 2DN",
          "StationId": 158,
          "ArrivalTime": "19:03:00",
          "IsDayChanged": 1,
          "DayCount": 1,
          "DepartureTime": "19:05:00",
          "IsUp": 0,
          "OrderNumber": 33,
          "StationName": "Daharki",
          "Latitude": 28.045455,
          "Longitude": 69.687734
        },
        {
          "TrainNumber": 2,
          "TrainName": "Khyber Mail 2DN",
          "StationId": 157,
          "ArrivalTime": "19:21:00",
          "IsDayChanged": 1,
          "DayCount": 1,
          "DepartureTime": "19:23:00",
          "IsUp": 0,
          "OrderNumber": 34,
          "StationName": "Mirpur Mathelo",
          "Latitude": 28.019205,
          "Longitude": 69.552623
        },
        {
          "TrainNumber": 2,
          "TrainName": "Khyber Mail 2DN",
          "StationId": 136,
          "ArrivalTime": "19:45:00",
          "IsDayChanged": 1,
          "DayCount": 1,
          "DepartureTime": "19:47:00",
          "IsUp": 0,
          "OrderNumber": 35,
          "StationName": "Ghotki",
          "Latitude": 27.993889,
          "Longitude": 69.313555
        },
        {
          "TrainNumber": 2,
          "TrainName": "Khyber Mail 2DN",
          "StationId": 156,
          "ArrivalTime": "20:15:00",
          "IsDayChanged": 1,
          "DayCount": 1,
          "DepartureTime": "20:20:00",
          "IsUp": 0,
          "OrderNumber": 36,
          "StationName": "Pano Akil",
          "Latitude": 27.850791,
          "Longitude": 69.115156
        },
        {
          "TrainNumber": 2,
          "TrainName": "Khyber Mail 2DN",
          "StationId": 120,
          "ArrivalTime": "21:10:00",
          "IsDayChanged": 1,
          "DayCount": 1,
          "DepartureTime": "21:35:00",
          "IsUp": 0,
          "OrderNumber": 37,
          "StationName": "Rohri Jn.",
          "Latitude": 27.685755,
          "Longitude": 68.896448
        },
        {
          "TrainNumber": 2,
          "TrainName": "Khyber Mail 2DN",
          "StationId": 123,
          "ArrivalTime": "00:08:00",
          "IsDayChanged": 1,
          "DayCount": 2,
          "DepartureTime": "00:10:00",
          "IsUp": 0,
          "OrderNumber": 38,
          "StationName": "Nawabshah Jn.",
          "Latitude": 26.245775,
          "Longitude": 68.411685
        },
        {
          "TrainNumber": 2,
          "TrainName": "Khyber Mail 2DN",
          "StationId": 126,
          "ArrivalTime": "02:00:00",
          "IsDayChanged": 1,
          "DayCount": 2,
          "DepartureTime": "02:10:00",
          "IsUp": 0,
          "OrderNumber": 39,
          "StationName": "Hyderabad Jn",
          "Latitude": 25.381869,
          "Longitude": 68.373587
        },
        {
          "TrainNumber": 2,
          "TrainName": "Khyber Mail 2DN",
          "StationId": 127,
          "ArrivalTime": "04:08:00",
          "IsDayChanged": 1,
          "DayCount": 2,
          "DepartureTime": "04:10:00",
          "IsUp": 0,
          "OrderNumber": 40,
          "StationName": "Landhi Jn.",
          "Latitude": 24.850925,
          "Longitude": 67.211924
        },
        {
          "TrainNumber": 2,
          "TrainName": "Khyber Mail 2DN",
          "StationId": 128,
          "ArrivalTime": "04:45:00",
          "IsDayChanged": 1,
          "DayCount": 2,
          "DepartureTime": "04:47:00",
          "IsUp": 0,
          "OrderNumber": 41,
          "StationName": "Drigh Road",
          "Latitude": 24.886232,
          "Longitude": 67.125518
        },
        {
          "TrainNumber": 2,
          "TrainName": "Khyber Mail 2DN",
          "StationId": 129,
          "ArrivalTime": "05:15:00",
          "IsDayChanged": 1,
          "DayCount": 2,
          "DepartureTime": null,
          "IsUp": 0,
          "OrderNumber": 42,
          "StationName": "Karachi Cantt",
          "Latitude": 24.843004,
          "Longitude": 67.040354
        }
      ]
    },
    {
      "TrainId": 3,
      "stations": [
        {
          "TrainNumber": 3,
          "TrainName": "Bolan Mail 3UP",
          "StationId": 172,
          "ArrivalTime": null,
          "IsDayChanged": 0,
          "DayCount": 0,
          "DepartureTime": "16:00:00",
          "IsUp": 1,
          "OrderNumber": 1,
          "StationName": "Karachi City",
          "Latitude": 24.847385,
          "Longitude": 67.003771
        },
        {
          "TrainNumber": 3,
          "TrainName": "Bolan Mail 3UP",
          "StationId": 129,
          "ArrivalTime": "16:10:00",
          "IsDayChanged": 0,
          "DayCount": 0,
          "DepartureTime": "16:20:00",
          "IsUp": 1,
          "OrderNumber": 2,
          "StationName": "Karachi Cantt",
          "Latitude": 24.843004,
          "Longitude": 67.040354
        },
        {
          "TrainNumber": 3,
          "TrainName": "Bolan Mail 3UP",
          "StationId": 128,
          "ArrivalTime": "16:40:00",
          "IsDayChanged": 0,
          "DayCount": 0,
          "DepartureTime": "16:42:00",
          "IsUp": 1,
          "OrderNumber": 3,
          "StationName": "Drigh Road",
          "Latitude": 24.886232,
          "Longitude": 67.125518
        },
        {
          "TrainNumber": 3,
          "TrainName": "Bolan Mail 3UP",
          "StationId": 127,
          "ArrivalTime": "17:00:00",
          "IsDayChanged": 0,
          "DayCount": 0,
          "DepartureTime": "17:02:00",
          "IsUp": 1,
          "OrderNumber": 4,
          "StationName": "Landhi Jn.",
          "Latitude": 24.850925,
          "Longitude": 67.211924
        },
        {
          "TrainNumber": 3,
          "TrainName": "Bolan Mail 3UP",
          "StationId": 1318,
          "ArrivalTime": "17:54:00",
          "IsDayChanged": 0,
          "DayCount": 0,
          "DepartureTime": "17:55:00",
          "IsUp": 1,
          "OrderNumber": 5,
          "StationName": "Braudabad",
          "Latitude": 24.937824,
          "Longitude": 67.903173
        },
        {
          "TrainNumber": 3,
          "TrainName": "Bolan Mail 3UP",
          "StationId": 173,
          "ArrivalTime": "18:55:00",
          "IsDayChanged": 0,
          "DayCount": 0,
          "DepartureTime": "19:10:00",
          "IsUp": 1,
          "OrderNumber": 6,
          "StationName": "Kotri Jn",
          "Latitude": 25.366867,
          "Longitude": 68.297367
        },
        {
          "TrainNumber": 3,
          "TrainName": "Bolan Mail 3UP",
          "StationId": 1319,
          "ArrivalTime": "19:22:00",
          "IsDayChanged": 0,
          "DayCount": 0,
          "DepartureTime": "19:24:00",
          "IsUp": 1,
          "OrderNumber": 7,
          "StationName": "Sindh University",
          "Latitude": 25.424267,
          "Longitude": 68.281101
        },
        {
          "TrainNumber": 3,
          "TrainName": "Bolan Mail 3UP",
          "StationId": 1320,
          "ArrivalTime": "21:58:00",
          "IsDayChanged": 0,
          "DayCount": 0,
          "DepartureTime": "22:00:00",
          "IsUp": 1,
          "OrderNumber": 8,
          "StationName": "Sehwan Sharif",
          "Latitude": 26.412388,
          "Longitude": 67.860532
        },
        {
          "TrainNumber": 3,
          "TrainName": "Bolan Mail 3UP",
          "StationId": 1321,
          "ArrivalTime": "23:25:00",
          "IsDayChanged": 0,
          "DayCount": 0,
          "DepartureTime": "23:33:00",
          "IsUp": 1,
          "OrderNumber": 9,
          "StationName": "Dadu",
          "Latitude": 26.725692,
          "Longitude": 67.771946
        },
        {
          "TrainNumber": 3,
          "TrainName": "Bolan Mail 3UP",
          "StationId": 1322,
          "ArrivalTime": "00:33:00",
          "IsDayChanged": 1,
          "DayCount": 1,
          "DepartureTime": "00:35:00",
          "IsUp": 1,
          "OrderNumber": 10,
          "StationName": "Rehmani Nagar",
          "Latitude": 27.039841,
          "Longitude": 67.848251
        },
        {
          "TrainNumber": 3,
          "TrainName": "Bolan Mail 3UP",
          "StationId": 1323,
          "ArrivalTime": "01:15:00",
          "IsDayChanged": 1,
          "DayCount": 1,
          "DepartureTime": "01:17:00",
          "IsUp": 1,
          "OrderNumber": 11,
          "StationName": "Radhan",
          "Latitude": 27.176347,
          "Longitude": 67.954267
        },
        {
          "TrainNumber": 3,
          "TrainName": "Bolan Mail 3UP",
          "StationId": 1324,
          "ArrivalTime": "01:45:00",
          "IsDayChanged": 1,
          "DayCount": 1,
          "DepartureTime": "01:47:00",
          "IsUp": 1,
          "OrderNumber": 12,
          "StationName": "Badah",
          "Latitude": 27.329425,
          "Longitude": 68.027129
        },
        {
          "TrainNumber": 3,
          "TrainName": "Bolan Mail 3UP",
          "StationId": 1325,
          "ArrivalTime": "03:00:00",
          "IsDayChanged": 1,
          "DayCount": 1,
          "DepartureTime": "03:08:00",
          "IsUp": 1,
          "OrderNumber": 13,
          "StationName": "Larkana Jn.",
          "Latitude": 27.54959,
          "Longitude": 68.210218
        },
        {
          "TrainNumber": 3,
          "TrainName": "Bolan Mail 3UP",
          "StationId": 1334,
          "ArrivalTime": "03:40:00",
          "IsDayChanged": 1,
          "DayCount": 1,
          "DepartureTime": "03:42:00",
          "IsUp": 1,
          "OrderNumber": 14,
          "StationName": "Shahnawaz Bhutto",
          "Latitude": 27.670656,
          "Longitude": 68.354588
        },
        {
          "TrainNumber": 3,
          "TrainName": "Bolan Mail 3UP",
          "StationId": 231,
          "ArrivalTime": "05:10:00",
          "IsDayChanged": 1,
          "DayCount": 1,
          "DepartureTime": "05:12:00",
          "IsUp": 1,
          "OrderNumber": 15,
          "StationName": "Shikarpur",
          "Latitude": 27.956239,
          "Longitude": 68.647473
        },
        {
          "TrainNumber": 3,
          "TrainName": "Bolan Mail 3UP",
          "StationId": 232,
          "ArrivalTime": "06:45:00",
          "IsDayChanged": 1,
          "DayCount": 1,
          "DepartureTime": "07:05:00",
          "IsUp": 1,
          "OrderNumber": 16,
          "StationName": "Jacobabad Jn",
          "Latitude": 28.2756,
          "Longitude": 68.433213
        }
      ]
    },
    {
      "TrainId": 4,
      "stations": [
        {
          "TrainNumber": 4,
          "TrainName": "Bolan Mail 4DN",
          "StationId": 232,
          "ArrivalTime": null,
          "IsDayChanged": null,
          "DayCount": null,
          "DepartureTime": "18:55:00",
          "IsUp": 0,
          "OrderNumber": 1,
          "StationName": "Jacobabad Jn",
          "Latitude": 28.2756,
          "Longitude": 68.433213
        },
        {
          "TrainNumber": 4,
          "TrainName": "Bolan Mail 4DN",
          "StationId": 231,
          "ArrivalTime": "20:09:00",
          "IsDayChanged": null,
          "DayCount": null,
          "DepartureTime": "20:11:00",
          "IsUp": 0,
          "OrderNumber": 2,
          "StationName": "Shikarpur",
          "Latitude": 27.956239,
          "Longitude": 68.647473
        },
        {
          "TrainNumber": 4,
          "TrainName": "Bolan Mail 4DN",
          "StationId": 1334,
          "ArrivalTime": "21:16:00",
          "IsDayChanged": null,
          "DayCount": null,
          "DepartureTime": "21:18:00",
          "IsUp": 0,
          "OrderNumber": 3,
          "StationName": "Shahnawaz Bhutto",
          "Latitude": 27.670656,
          "Longitude": 68.354588
        },
        {
          "TrainNumber": 4,
          "TrainName": "Bolan Mail 4DN",
          "StationId": 1325,
          "ArrivalTime": "21:40:00",
          "IsDayChanged": null,
          "DayCount": null,
          "DepartureTime": "21:48:00",
          "IsUp": 0,
          "OrderNumber": 4,
          "StationName": "Larkana Jn.",
          "Latitude": 27.54959,
          "Longitude": 68.210218
        },
        {
          "TrainNumber": 4,
          "TrainName": "Bolan Mail 4DN",
          "StationId": 1324,
          "ArrivalTime": "22:56:00",
          "IsDayChanged": null,
          "DayCount": null,
          "DepartureTime": "22:58:00",
          "IsUp": 0,
          "OrderNumber": 5,
          "StationName": "Badah",
          "Latitude": 27.329425,
          "Longitude": 68.027129
        },
        {
          "TrainNumber": 4,
          "TrainName": "Bolan Mail 4DN",
          "StationId": 1323,
          "ArrivalTime": "23:25:00",
          "IsDayChanged": null,
          "DayCount": null,
          "DepartureTime": "23:27:00",
          "IsUp": 0,
          "OrderNumber": 6,
          "StationName": "Radhan",
          "Latitude": 27.176347,
          "Longitude": 67.954267
        },
        {
          "TrainNumber": 4,
          "TrainName": "Bolan Mail 4DN",
          "StationId": 1322,
          "ArrivalTime": "00:04:00",
          "IsDayChanged": 1,
          "DayCount": 1,
          "DepartureTime": "00:06:00",
          "IsUp": 0,
          "OrderNumber": 7,
          "StationName": "Rehmani Nagar",
          "Latitude": 27.039841,
          "Longitude": 67.848251
        },
        {
          "TrainNumber": 4,
          "TrainName": "Bolan Mail 4DN",
          "StationId": 1321,
          "ArrivalTime": "01:20:00",
          "IsDayChanged": 1,
          "DayCount": 1,
          "DepartureTime": "01:28:00",
          "IsUp": 0,
          "OrderNumber": 8,
          "StationName": "Dadu",
          "Latitude": 26.725692,
          "Longitude": 67.771946
        },
        {
          "TrainNumber": 4,
          "TrainName": "Bolan Mail 4DN",
          "StationId": 1320,
          "ArrivalTime": "02:10:00",
          "IsDayChanged": 1,
          "DayCount": 1,
          "DepartureTime": "02:12:00",
          "IsUp": 0,
          "OrderNumber": 9,
          "StationName": "Sehwan Sharif",
          "Latitude": 26.412388,
          "Longitude": 67.860532
        },
        {
          "TrainNumber": 4,
          "TrainName": "Bolan Mail 4DN",
          "StationId": 1319,
          "ArrivalTime": "04:48:00",
          "IsDayChanged": 1,
          "DayCount": 1,
          "DepartureTime": "04:50:00",
          "IsUp": 0,
          "OrderNumber": 10,
          "StationName": "Sindh University",
          "Latitude": 25.424267,
          "Longitude": 68.281101
        },
        {
          "TrainNumber": 4,
          "TrainName": "Bolan Mail 4DN",
          "StationId": 173,
          "ArrivalTime": "05:05:00",
          "IsDayChanged": 1,
          "DayCount": 1,
          "DepartureTime": "05:20:00",
          "IsUp": 0,
          "OrderNumber": 11,
          "StationName": "Kotri Jn",
          "Latitude": 25.366867,
          "Longitude": 68.297367
        },
        {
          "TrainNumber": 4,
          "TrainName": "Bolan Mail 4DN",
          "StationId": 1318,
          "ArrivalTime": "06:11:00",
          "IsDayChanged": 1,
          "DayCount": 1,
          "DepartureTime": "06:12:00",
          "IsUp": 0,
          "OrderNumber": 12,
          "StationName": "Braudabad",
          "Latitude": 24.937824,
          "Longitude": 67.903173
        },
        {
          "TrainNumber": 4,
          "TrainName": "Bolan Mail 4DN",
          "StationId": 127,
          "ArrivalTime": "07:08:00",
          "IsDayChanged": 1,
          "DayCount": 1,
          "DepartureTime": "07:10:00",
          "IsUp": 0,
          "OrderNumber": 13,
          "StationName": "Landhi Jn.",
          "Latitude": 24.850925,
          "Longitude": 67.211924
        },
        {
          "TrainNumber": 4,
          "TrainName": "Bolan Mail 4DN",
          "StationId": 128,
          "ArrivalTime": "07:48:00",
          "IsDayChanged": 1,
          "DayCount": 1,
          "DepartureTime": "07:50:00",
          "IsUp": 0,
          "OrderNumber": 14,
          "StationName": "Drigh Road",
          "Latitude": 24.886232,
          "Longitude": 67.125518
        },
        {
          "TrainNumber": 4,
          "TrainName": "Bolan Mail 4DN",
          "StationId": 129,
          "ArrivalTime": "08:15:00",
          "IsDayChanged": 1,
          "DayCount": 1,
          "DepartureTime": "08:25:00",
          "IsUp": 0,
          "OrderNumber": 15,
          "StationName": "Karachi Cantt",
          "Latitude": 24.843004,
          "Longitude": 67.040354
        },
        {
          "TrainNumber": 4,
          "TrainName": "Bolan Mail 4DN",
          "StationId": 172,
          "ArrivalTime": "08:35:00",
          "IsDayChanged": 1,
          "DayCount": 1,
          "DepartureTime": null,
          "IsUp": 0,
          "OrderNumber": 16,
          "StationName": "Karachi City",
          "Latitude": 24.847385,
          "Longitude": 67.003771
        }
      ]
    },
    {
      "TrainId": 5,
      "stations": [
        {
          "TrainNumber": 5,
          "TrainName": "Green Line 5UP",
          "StationId": 129,
          "ArrivalTime": null,
          "IsDayChanged": null,
          "DayCount": null,
          "DepartureTime": "22:00:00",
          "IsUp": 1,
          "OrderNumber": 1,
          "StationName": "Karachi Cantt",
          "Latitude": 24.843004,
          "Longitude": 67.040354
        },
        {
          "TrainNumber": 5,
          "TrainName": "Green Line 5UP",
          "StationId": 126,
          "ArrivalTime": "00:30:00",
          "IsDayChanged": 1,
          "DayCount": 1,
          "DepartureTime": "00:35:00",
          "IsUp": 1,
          "OrderNumber": 2,
          "StationName": "Hyderabad Jn",
          "Latitude": 25.381869,
          "Longitude": 68.373587
        },
        {
          "TrainNumber": 5,
          "TrainName": "Green Line 5UP",
          "StationId": 120,
          "ArrivalTime": "04:35:00",
          "IsDayChanged": 1,
          "DayCount": 1,
          "DepartureTime": "05:00:00",
          "IsUp": 1,
          "OrderNumber": 3,
          "StationName": "Rohri Jn.",
          "Latitude": 27.685755,
          "Longitude": 68.896448
        },
        {
          "TrainNumber": 5,
          "TrainName": "Green Line 5UP",
          "StationId": 117,
          "ArrivalTime": "09:15:00",
          "IsDayChanged": 1,
          "DayCount": 1,
          "DepartureTime": "09:17:00",
          "IsUp": 1,
          "OrderNumber": 4,
          "StationName": "Bahawalpur",
          "Latitude": 29.402937,
          "Longitude": 71.65158
        },
        {
          "TrainNumber": 5,
          "TrainName": "Green Line 5UP",
          "StationId": 115,
          "ArrivalTime": "10:40:00",
          "IsDayChanged": 1,
          "DayCount": 1,
          "DepartureTime": "11:00:00",
          "IsUp": 1,
          "OrderNumber": 5,
          "StationName": "Khanewal Jn",
          "Latitude": 30.30932445,
          "Longitude": 71.92858071
        },
        {
          "TrainNumber": 5,
          "TrainName": "Green Line 5UP",
          "StationId": 108,
          "ArrivalTime": "14:35:00",
          "IsDayChanged": 1,
          "DayCount": 1,
          "DepartureTime": "15:10:00",
          "IsUp": 1,
          "OrderNumber": 6,
          "StationName": "Lahore Jn.",
          "Latitude": 31.57769965,
          "Longitude": 74.33759112
        },
        {
          "TrainNumber": 5,
          "TrainName": "Green Line 5UP",
          "StationId": 130,
          "ArrivalTime": "19:22:00",
          "IsDayChanged": 1,
          "DayCount": 1,
          "DepartureTime": "19:24:00",
          "IsUp": 1,
          "OrderNumber": 7,
          "StationName": "Chaklala",
          "Latitude": 33.600697,
          "Longitude": 73.096466
        },
        {
          "TrainNumber": 5,
          "TrainName": "Green Line 5UP",
          "StationId": 101,
          "ArrivalTime": "19:35:00",
          "IsDayChanged": 1,
          "DayCount": 1,
          "DepartureTime": "19:50:00",
          "IsUp": 1,
          "OrderNumber": 8,
          "StationName": "Rawalpindi",
          "Latitude": 33.604268,
          "Longitude": 73.047277
        },
        {
          "TrainNumber": 5,
          "TrainName": "Green Line 5UP",
          "StationId": 131,
          "ArrivalTime": "20:10:00",
          "IsDayChanged": 1,
          "DayCount": 1,
          "DepartureTime": null,
          "IsUp": 1,
          "OrderNumber": 9,
          "StationName": "Margala",
          "Latitude": 33.663871,
          "Longitude": 73.046805
        }
      ]
    },
    {
      "TrainId": 6,
      "stations": [
        {
          "TrainNumber": 6,
          "TrainName": "Green Line 6DN",
          "StationId": 131,
          "ArrivalTime": null,
          "IsDayChanged": null,
          "DayCount": null,
          "DepartureTime": "15:00:00",
          "IsUp": 0,
          "OrderNumber": 1,
          "StationName": "Margala",
          "Latitude": 33.663871,
          "Longitude": 73.046805
        },
        {
          "TrainNumber": 6,
          "TrainName": "Green Line 6DN",
          "StationId": 101,
          "ArrivalTime": "15:20:00",
          "IsDayChanged": null,
          "DayCount": null,
          "DepartureTime": "15:40:00",
          "IsUp": 0,
          "OrderNumber": 2,
          "StationName": "Rawalpindi",
          "Latitude": 33.604268,
          "Longitude": 73.047277
        },
        {
          "TrainNumber": 6,
          "TrainName": "Green Line 6DN",
          "StationId": 130,
          "ArrivalTime": "15:50:00",
          "IsDayChanged": null,
          "DayCount": null,
          "DepartureTime": "15:52:00",
          "IsUp": 0,
          "OrderNumber": 3,
          "StationName": "Chaklala",
          "Latitude": 33.600697,
          "Longitude": 73.096466
        },
        {
          "TrainNumber": 6,
          "TrainName": "Green Line 6DN",
          "StationId": 108,
          "ArrivalTime": "20:15:00",
          "IsDayChanged": null,
          "DayCount": null,
          "DepartureTime": "20:50:00",
          "IsUp": 0,
          "OrderNumber": 4,
          "StationName": "Lahore Jn.",
          "Latitude": 31.57769965,
          "Longitude": 74.33759112
        },
        {
          "TrainNumber": 6,
          "TrainName": "Green Line 6DN",
          "StationId": 115,
          "ArrivalTime": "00:05:00",
          "IsDayChanged": 1,
          "DayCount": 1,
          "DepartureTime": "00:25:00",
          "IsUp": 0,
          "OrderNumber": 5,
          "StationName": "Khanewal Jn",
          "Latitude": 30.30932445,
          "Longitude": 71.92858071
        },
        {
          "TrainNumber": 6,
          "TrainName": "Green Line 6DN",
          "StationId": 117,
          "ArrivalTime": "01:38:00",
          "IsDayChanged": 1,
          "DayCount": 1,
          "DepartureTime": "01:40:00",
          "IsUp": 0,
          "OrderNumber": 6,
          "StationName": "Bahawalpur",
          "Latitude": 29.402937,
          "Longitude": 71.65158
        },
        {
          "TrainNumber": 6,
          "TrainName": "Green Line 6DN",
          "StationId": 120,
          "ArrivalTime": "06:10:00",
          "IsDayChanged": 1,
          "DayCount": 1,
          "DepartureTime": "06:35:00",
          "IsUp": 0,
          "OrderNumber": 7,
          "StationName": "Rohri Jn.",
          "Latitude": 27.685755,
          "Longitude": 68.896448
        },
        {
          "TrainNumber": 6,
          "TrainName": "Green Line 6DN",
          "StationId": 126,
          "ArrivalTime": "11:15:00",
          "IsDayChanged": 1,
          "DayCount": 1,
          "DepartureTime": "11:20:00",
          "IsUp": 0,
          "OrderNumber": 8,
          "StationName": "Hyderabad Jn",
          "Latitude": 25.381869,
          "Longitude": 68.373587
        },
        {
          "TrainNumber": 6,
          "TrainName": "Green Line 6DN",
          "StationId": 128,
          "ArrivalTime": "13:50:00",
          "IsDayChanged": 1,
          "DayCount": 1,
          "DepartureTime": "13:52:00",
          "IsUp": 0,
          "OrderNumber": 9,
          "StationName": "Drigh Road",
          "Latitude": 24.886232,
          "Longitude": 67.125518
        },
        {
          "TrainNumber": 6,
          "TrainName": "Green Line 6DN",
          "StationId": 129,
          "ArrivalTime": "14:20:00",
          "IsDayChanged": 1,
          "DayCount": 1,
          "DepartureTime": null,
          "IsUp": 0,
          "OrderNumber": 10,
          "StationName": "Karachi Cantt",
          "Latitude": 24.843004,
          "Longitude": 67.040354
        }
      ]
    },
    {
      "TrainId": 7,
      "stations": [
        {
          "TrainNumber": 7,
          "TrainName": "Tezgam 7UP",
          "StationId": 129,
          "ArrivalTime": null,
          "IsDayChanged": null,
          "DayCount": null,
          "DepartureTime": "17:30:00",
          "IsUp": 1,
          "OrderNumber": 1,
          "StationName": "Karachi Cantt",
          "Latitude": 24.843004,
          "Longitude": 67.040354
        },
        {
          "TrainNumber": 7,
          "TrainName": "Tezgam 7UP",
          "StationId": 126,
          "ArrivalTime": "20:02:00",
          "IsDayChanged": null,
          "DayCount": null,
          "DepartureTime": "20:10:00",
          "IsUp": 1,
          "OrderNumber": 2,
          "StationName": "Hyderabad Jn",
          "Latitude": 25.381869,
          "Longitude": 68.373587
        },
        {
          "TrainNumber": 7,
          "TrainName": "Tezgam 7UP",
          "StationId": 125,
          "ArrivalTime": "21:07:00",
          "IsDayChanged": null,
          "DayCount": null,
          "DepartureTime": "21:09:00",
          "IsUp": 1,
          "OrderNumber": 3,
          "StationName": "Tando Adam",
          "Latitude": 25.757395,
          "Longitude": 68.662203
        },
        {
          "TrainNumber": 7,
          "TrainName": "Tezgam 7UP",
          "StationId": 124,
          "ArrivalTime": "21:26:00",
          "IsDayChanged": null,
          "DayCount": null,
          "DepartureTime": "21:28:00",
          "IsUp": 1,
          "OrderNumber": 4,
          "StationName": "Shahdadpur",
          "Latitude": 25.928209,
          "Longitude": 68.631591
        },
        {
          "TrainNumber": 7,
          "TrainName": "Tezgam 7UP",
          "StationId": 123,
          "ArrivalTime": "21:57:00",
          "IsDayChanged": null,
          "DayCount": null,
          "DepartureTime": "22:00:00",
          "IsUp": 1,
          "OrderNumber": 5,
          "StationName": "Nawabshah Jn.",
          "Latitude": 26.245775,
          "Longitude": 68.411685
        },
        {
          "TrainNumber": 7,
          "TrainName": "Tezgam 7UP",
          "StationId": 122,
          "ArrivalTime": "23:09:00",
          "IsDayChanged": null,
          "DayCount": null,
          "DepartureTime": "23:11:00",
          "IsUp": 1,
          "OrderNumber": 6,
          "StationName": "Mehrabpur",
          "Latitude": 27.099493,
          "Longitude": 68.420952
        },
        {
          "TrainNumber": 7,
          "TrainName": "Tezgam 7UP",
          "StationId": 121,
          "ArrivalTime": "00:10:00",
          "IsDayChanged": 1,
          "DayCount": 1,
          "DepartureTime": "00:12:00",
          "IsUp": 1,
          "OrderNumber": 7,
          "StationName": "Khairpur",
          "Latitude": 27.519046,
          "Longitude": 68.737381
        },
        {
          "TrainNumber": 7,
          "TrainName": "Tezgam 7UP",
          "StationId": 120,
          "ArrivalTime": "01:35:00",
          "IsDayChanged": 1,
          "DayCount": 1,
          "DepartureTime": "02:00:00",
          "IsUp": 1,
          "OrderNumber": 8,
          "StationName": "Rohri Jn.",
          "Latitude": 27.685755,
          "Longitude": 68.896448
        },
        {
          "TrainNumber": 7,
          "TrainName": "Tezgam 7UP",
          "StationId": 136,
          "ArrivalTime": "02:39:00",
          "IsDayChanged": 1,
          "DayCount": 1,
          "DepartureTime": "02:41:00",
          "IsUp": 1,
          "OrderNumber": 9,
          "StationName": "Ghotki",
          "Latitude": 27.993889,
          "Longitude": 69.313555
        },
        {
          "TrainNumber": 7,
          "TrainName": "Tezgam 7UP",
          "StationId": 119,
          "ArrivalTime": "04:34:00",
          "IsDayChanged": 1,
          "DayCount": 1,
          "DepartureTime": "04:36:00",
          "IsUp": 1,
          "OrderNumber": 10,
          "StationName": "Rahim Yar Khan",
          "Latitude": 28.422481,
          "Longitude": 70.30298
        },
        {
          "TrainNumber": 7,
          "TrainName": "Tezgam 7UP",
          "StationId": 118,
          "ArrivalTime": "05:35:00",
          "IsDayChanged": 1,
          "DayCount": 1,
          "DepartureTime": "05:40:00",
          "IsUp": 1,
          "OrderNumber": 11,
          "StationName": "Khanpur Jn.",
          "Latitude": 28.64007281,
          "Longitude": 70.64912796
        },
        {
          "TrainNumber": 7,
          "TrainName": "Tezgam 7UP",
          "StationId": 117,
          "ArrivalTime": "07:16:00",
          "IsDayChanged": 1,
          "DayCount": 1,
          "DepartureTime": "07:20:00",
          "IsUp": 1,
          "OrderNumber": 12,
          "StationName": "Bahawalpur",
          "Latitude": 29.402937,
          "Longitude": 71.65158
        },
        {
          "TrainNumber": 7,
          "TrainName": "Tezgam 7UP",
          "StationId": 116,
          "ArrivalTime": "08:35:00",
          "IsDayChanged": 1,
          "DayCount": 1,
          "DepartureTime": "08:55:00",
          "IsUp": 1,
          "OrderNumber": 13,
          "StationName": "Multan Cantt",
          "Latitude": 30.180694,
          "Longitude": 71.446741
        },
        {
          "TrainNumber": 7,
          "TrainName": "Tezgam 7UP",
          "StationId": 115,
          "ArrivalTime": "09:35:00",
          "IsDayChanged": 1,
          "DayCount": 1,
          "DepartureTime": "09:40:00",
          "IsUp": 1,
          "OrderNumber": 14,
          "StationName": "Khanewal Jn",
          "Latitude": 30.30932445,
          "Longitude": 71.92858071
        },
        {
          "TrainNumber": 7,
          "TrainName": "Tezgam 7UP",
          "StationId": 114,
          "ArrivalTime": "10:12:00",
          "IsDayChanged": 1,
          "DayCount": 1,
          "DepartureTime": "10:14:00",
          "IsUp": 1,
          "OrderNumber": 15,
          "StationName": "Mian Channu",
          "Latitude": 30.437812,
          "Longitude": 72.358115
        },
        {
          "TrainNumber": 7,
          "TrainName": "Tezgam 7UP",
          "StationId": 113,
          "ArrivalTime": "10:40:00",
          "IsDayChanged": 1,
          "DayCount": 1,
          "DepartureTime": "10:42:00",
          "IsUp": 1,
          "OrderNumber": 16,
          "StationName": "Chichawatni",
          "Latitude": 30.535164,
          "Longitude": 72.690116
        },
        {
          "TrainNumber": 7,
          "TrainName": "Tezgam 7UP",
          "StationId": 112,
          "ArrivalTime": "11:23:00",
          "IsDayChanged": 1,
          "DayCount": 1,
          "DepartureTime": "11:25:00",
          "IsUp": 1,
          "OrderNumber": 17,
          "StationName": "Sahiwal",
          "Latitude": 30.654502,
          "Longitude": 73.101085
        },
        {
          "TrainNumber": 7,
          "TrainName": "Tezgam 7UP",
          "StationId": 111,
          "ArrivalTime": "11:52:00",
          "IsDayChanged": 1,
          "DayCount": 1,
          "DepartureTime": "11:54:00",
          "IsUp": 1,
          "OrderNumber": 18,
          "StationName": "Okara",
          "Latitude": 30.80542535,
          "Longitude": 73.44433495
        },
        {
          "TrainNumber": 7,
          "TrainName": "Tezgam 7UP",
          "StationId": 110,
          "ArrivalTime": "12:26:00",
          "IsDayChanged": 1,
          "DayCount": 1,
          "DepartureTime": "12:28:00",
          "IsUp": 1,
          "OrderNumber": 19,
          "StationName": "Pattoki",
          "Latitude": 31.019176,
          "Longitude": 73.853793
        },
        {
          "TrainNumber": 7,
          "TrainName": "Tezgam 7UP",
          "StationId": 109,
          "ArrivalTime": "13:00:00",
          "IsDayChanged": 1,
          "DayCount": 1,
          "DepartureTime": "13:05:00",
          "IsUp": 1,
          "OrderNumber": 20,
          "StationName": "Raiwind Jn.",
          "Latitude": 31.251116,
          "Longitude": 74.222751
        },
        {
          "TrainNumber": 7,
          "TrainName": "Tezgam 7UP",
          "StationId": 108,
          "ArrivalTime": "14:00:00",
          "IsDayChanged": 1,
          "DayCount": 1,
          "DepartureTime": "14:30:00",
          "IsUp": 1,
          "OrderNumber": 21,
          "StationName": "Lahore Jn.",
          "Latitude": 31.57769965,
          "Longitude": 74.33759112
        },
        {
          "TrainNumber": 7,
          "TrainName": "Tezgam 7UP",
          "StationId": 107,
          "ArrivalTime": "15:25:00",
          "IsDayChanged": 1,
          "DayCount": 1,
          "DepartureTime": "15:30:00",
          "IsUp": 1,
          "OrderNumber": 22,
          "StationName": "Gujranwala",
          "Latitude": 32.177839,
          "Longitude": 74.186769
        },
        {
          "TrainNumber": 7,
          "TrainName": "Tezgam 7UP",
          "StationId": 106,
          "ArrivalTime": "15:55:00",
          "IsDayChanged": 1,
          "DayCount": 1,
          "DepartureTime": "15:57:00",
          "IsUp": 1,
          "OrderNumber": 23,
          "StationName": "Wazirabad Jn",
          "Latitude": 32.44580849,
          "Longitude": 74.11214948
        },
        {
          "TrainNumber": 7,
          "TrainName": "Tezgam 7UP",
          "StationId": 105,
          "ArrivalTime": "16:13:00",
          "IsDayChanged": 1,
          "DayCount": 1,
          "DepartureTime": "16:15:00",
          "IsUp": 1,
          "OrderNumber": 24,
          "StationName": "Gujrat",
          "Latitude": 32.563616,
          "Longitude": 74.063783
        },
        {
          "TrainNumber": 7,
          "TrainName": "Tezgam 7UP",
          "StationId": 104,
          "ArrivalTime": "16:47:00",
          "IsDayChanged": 1,
          "DayCount": 1,
          "DepartureTime": "16:49:00",
          "IsUp": 1,
          "OrderNumber": 25,
          "StationName": "Lala Musa Jn.",
          "Latitude": 32.700917,
          "Longitude": 73.948173
        },
        {
          "TrainNumber": 7,
          "TrainName": "Tezgam 7UP",
          "StationId": 103,
          "ArrivalTime": "17:31:00",
          "IsDayChanged": 1,
          "DayCount": 1,
          "DepartureTime": "17:33:00",
          "IsUp": 1,
          "OrderNumber": 26,
          "StationName": "Jhelum",
          "Latitude": 32.92957,
          "Longitude": 73.726029
        },
        {
          "TrainNumber": 7,
          "TrainName": "Tezgam 7UP",
          "StationId": 102,
          "ArrivalTime": "18:48:00",
          "IsDayChanged": 1,
          "DayCount": 1,
          "DepartureTime": "18:50:00",
          "IsUp": 1,
          "OrderNumber": 27,
          "StationName": "Gujar Khan",
          "Latitude": 33.257997,
          "Longitude": 73.308802
        },
        {
          "TrainNumber": 7,
          "TrainName": "Tezgam 7UP",
          "StationId": 130,
          "ArrivalTime": "19:45:00",
          "IsDayChanged": 1,
          "DayCount": 1,
          "DepartureTime": "19:47:00",
          "IsUp": 1,
          "OrderNumber": 28,
          "StationName": "Chaklala",
          "Latitude": 33.600697,
          "Longitude": 73.096466
        },
        {
          "TrainNumber": 7,
          "TrainName": "Tezgam 7UP",
          "StationId": 101,
          "ArrivalTime": "20:00:00",
          "IsDayChanged": 1,
          "DayCount": 1,
          "DepartureTime": null,
          "IsUp": 1,
          "OrderNumber": 29,
          "StationName": "Rawalpindi",
          "Latitude": 33.604268,
          "Longitude": 73.047277
        }
      ]
    },
    {
      "TrainId": 8,
      "stations": [
        {
          "TrainNumber": 8,
          "TrainName": "Tezgam 8DN",
          "StationId": 101,
          "ArrivalTime": null,
          "IsDayChanged": null,
          "DayCount": null,
          "DepartureTime": "08:00:00",
          "IsUp": 0,
          "OrderNumber": 1,
          "StationName": "Rawalpindi",
          "Latitude": 33.604268,
          "Longitude": 73.047277
        },
        {
          "TrainNumber": 8,
          "TrainName": "Tezgam 8DN",
          "StationId": 130,
          "ArrivalTime": "08:09:00",
          "IsDayChanged": null,
          "DayCount": null,
          "DepartureTime": "08:11:00",
          "IsUp": 0,
          "OrderNumber": 2,
          "StationName": "Chaklala",
          "Latitude": 33.600697,
          "Longitude": 73.096466
        },
        {
          "TrainNumber": 8,
          "TrainName": "Tezgam 8DN",
          "StationId": 102,
          "ArrivalTime": "08:52:00",
          "IsDayChanged": null,
          "DayCount": null,
          "DepartureTime": "08:54:00",
          "IsUp": 0,
          "OrderNumber": 3,
          "StationName": "Gujar Khan",
          "Latitude": 33.257997,
          "Longitude": 73.308802
        },
        {
          "TrainNumber": 8,
          "TrainName": "Tezgam 8DN",
          "StationId": 103,
          "ArrivalTime": "10:06:00",
          "IsDayChanged": null,
          "DayCount": null,
          "DepartureTime": "10:08:00",
          "IsUp": 0,
          "OrderNumber": 4,
          "StationName": "Jhelum",
          "Latitude": 32.92957,
          "Longitude": 73.726029
        },
        {
          "TrainNumber": 8,
          "TrainName": "Tezgam 8DN",
          "StationId": 104,
          "ArrivalTime": "11:00:00",
          "IsDayChanged": null,
          "DayCount": null,
          "DepartureTime": "11:05:00",
          "IsUp": 0,
          "OrderNumber": 5,
          "StationName": "Lala Musa Jn.",
          "Latitude": 32.700917,
          "Longitude": 73.948173
        },
        {
          "TrainNumber": 8,
          "TrainName": "Tezgam 8DN",
          "StationId": 105,
          "ArrivalTime": "11:22:00",
          "IsDayChanged": null,
          "DayCount": null,
          "DepartureTime": "11:24:00",
          "IsUp": 0,
          "OrderNumber": 6,
          "StationName": "Gujrat",
          "Latitude": 32.563616,
          "Longitude": 74.063783
        },
        {
          "TrainNumber": 8,
          "TrainName": "Tezgam 8DN",
          "StationId": 106,
          "ArrivalTime": "11:40:00",
          "IsDayChanged": null,
          "DayCount": null,
          "DepartureTime": "11:42:00",
          "IsUp": 0,
          "OrderNumber": 7,
          "StationName": "Wazirabad Jn",
          "Latitude": 32.44580849,
          "Longitude": 74.11214948
        },
        {
          "TrainNumber": 8,
          "TrainName": "Tezgam 8DN",
          "StationId": 107,
          "ArrivalTime": "12:10:00",
          "IsDayChanged": null,
          "DayCount": null,
          "DepartureTime": "12:15:00",
          "IsUp": 0,
          "OrderNumber": 8,
          "StationName": "Gujranwala",
          "Latitude": 32.177839,
          "Longitude": 74.186769
        },
        {
          "TrainNumber": 8,
          "TrainName": "Tezgam 8DN",
          "StationId": 108,
          "ArrivalTime": "13:15:00",
          "IsDayChanged": null,
          "DayCount": null,
          "DepartureTime": "13:45:00",
          "IsUp": 0,
          "OrderNumber": 9,
          "StationName": "Lahore Jn.",
          "Latitude": 31.57769965,
          "Longitude": 74.33759112
        },
        {
          "TrainNumber": 8,
          "TrainName": "Tezgam 8DN",
          "StationId": 109,
          "ArrivalTime": "14:20:00",
          "IsDayChanged": null,
          "DayCount": null,
          "DepartureTime": "14:25:00",
          "IsUp": 0,
          "OrderNumber": 10,
          "StationName": "Raiwind Jn.",
          "Latitude": 31.251116,
          "Longitude": 74.222751
        },
        {
          "TrainNumber": 8,
          "TrainName": "Tezgam 8DN",
          "StationId": 110,
          "ArrivalTime": "14:56:00",
          "IsDayChanged": null,
          "DayCount": null,
          "DepartureTime": "14:58:00",
          "IsUp": 0,
          "OrderNumber": 11,
          "StationName": "Pattoki",
          "Latitude": 31.019176,
          "Longitude": 73.853793
        },
        {
          "TrainNumber": 8,
          "TrainName": "Tezgam 8DN",
          "StationId": 111,
          "ArrivalTime": "15:41:00",
          "IsDayChanged": null,
          "DayCount": null,
          "DepartureTime": "15:43:00",
          "IsUp": 0,
          "OrderNumber": 12,
          "StationName": "Okara",
          "Latitude": 30.80542535,
          "Longitude": 73.44433495
        },
        {
          "TrainNumber": 8,
          "TrainName": "Tezgam 8DN",
          "StationId": 112,
          "ArrivalTime": "16:27:00",
          "IsDayChanged": null,
          "DayCount": null,
          "DepartureTime": "16:29:00",
          "IsUp": 0,
          "OrderNumber": 13,
          "StationName": "Sahiwal",
          "Latitude": 30.654502,
          "Longitude": 73.101085
        },
        {
          "TrainNumber": 8,
          "TrainName": "Tezgam 8DN",
          "StationId": 113,
          "ArrivalTime": "17:00:00",
          "IsDayChanged": null,
          "DayCount": null,
          "DepartureTime": "17:02:00",
          "IsUp": 0,
          "OrderNumber": 14,
          "StationName": "Chichawatni",
          "Latitude": 30.535164,
          "Longitude": 72.690116
        },
        {
          "TrainNumber": 8,
          "TrainName": "Tezgam 8DN",
          "StationId": 114,
          "ArrivalTime": "17:28:00",
          "IsDayChanged": null,
          "DayCount": null,
          "DepartureTime": "17:30:00",
          "IsUp": 0,
          "OrderNumber": 15,
          "StationName": "Mian Channu",
          "Latitude": 30.437812,
          "Longitude": 72.358115
        },
        {
          "TrainNumber": 8,
          "TrainName": "Tezgam 8DN",
          "StationId": 115,
          "ArrivalTime": "18:10:00",
          "IsDayChanged": null,
          "DayCount": null,
          "DepartureTime": "18:15:00",
          "IsUp": 0,
          "OrderNumber": 16,
          "StationName": "Khanewal Jn",
          "Latitude": 30.30932445,
          "Longitude": 71.92858071
        },
        {
          "TrainNumber": 8,
          "TrainName": "Tezgam 8DN",
          "StationId": 116,
          "ArrivalTime": "18:50:00",
          "IsDayChanged": null,
          "DayCount": null,
          "DepartureTime": "19:10:00",
          "IsUp": 0,
          "OrderNumber": 17,
          "StationName": "Multan Cantt",
          "Latitude": 30.180694,
          "Longitude": 71.446741
        },
        {
          "TrainNumber": 8,
          "TrainName": "Tezgam 8DN",
          "StationId": 117,
          "ArrivalTime": "20:25:00",
          "IsDayChanged": null,
          "DayCount": null,
          "DepartureTime": "20:29:00",
          "IsUp": 0,
          "OrderNumber": 18,
          "StationName": "Bahawalpur",
          "Latitude": 29.402937,
          "Longitude": 71.65158
        },
        {
          "TrainNumber": 8,
          "TrainName": "Tezgam 8DN",
          "StationId": 118,
          "ArrivalTime": "22:10:00",
          "IsDayChanged": null,
          "DayCount": null,
          "DepartureTime": "22:15:00",
          "IsUp": 0,
          "OrderNumber": 19,
          "StationName": "Khanpur Jn.",
          "Latitude": 28.64007281,
          "Longitude": 70.64912796
        },
        {
          "TrainNumber": 8,
          "TrainName": "Tezgam 8DN",
          "StationId": 119,
          "ArrivalTime": "22:47:00",
          "IsDayChanged": null,
          "DayCount": null,
          "DepartureTime": "22:49:00",
          "IsUp": 0,
          "OrderNumber": 20,
          "StationName": "Rahim Yar Khan",
          "Latitude": 28.422481,
          "Longitude": 70.30298
        },
        {
          "TrainNumber": 8,
          "TrainName": "Tezgam 8DN",
          "StationId": 136,
          "ArrivalTime": "00:23:00",
          "IsDayChanged": 1,
          "DayCount": 1,
          "DepartureTime": "00:25:00",
          "IsUp": 0,
          "OrderNumber": 21,
          "StationName": "Ghotki",
          "Latitude": 27.993889,
          "Longitude": 69.313555
        },
        {
          "TrainNumber": 8,
          "TrainName": "Tezgam 8DN",
          "StationId": 120,
          "ArrivalTime": "01:30:00",
          "IsDayChanged": 1,
          "DayCount": 1,
          "DepartureTime": "01:55:00",
          "IsUp": 0,
          "OrderNumber": 22,
          "StationName": "Rohri Jn.",
          "Latitude": 27.685755,
          "Longitude": 68.896448
        },
        {
          "TrainNumber": 8,
          "TrainName": "Tezgam 8DN",
          "StationId": 121,
          "ArrivalTime": "02:22:00",
          "IsDayChanged": 1,
          "DayCount": 1,
          "DepartureTime": "02:24:00",
          "IsUp": 0,
          "OrderNumber": 23,
          "StationName": "Khairpur",
          "Latitude": 27.519046,
          "Longitude": 68.737381
        },
        {
          "TrainNumber": 8,
          "TrainName": "Tezgam 8DN",
          "StationId": 122,
          "ArrivalTime": "03:02:00",
          "IsDayChanged": 1,
          "DayCount": 1,
          "DepartureTime": "03:04:00",
          "IsUp": 0,
          "OrderNumber": 24,
          "StationName": "Mehrabpur",
          "Latitude": 27.099493,
          "Longitude": 68.420952
        },
        {
          "TrainNumber": 8,
          "TrainName": "Tezgam 8DN",
          "StationId": 123,
          "ArrivalTime": "04:54:00",
          "IsDayChanged": 1,
          "DayCount": 1,
          "DepartureTime": "04:56:00",
          "IsUp": 0,
          "OrderNumber": 25,
          "StationName": "Nawabshah Jn.",
          "Latitude": 26.245775,
          "Longitude": 68.411685
        },
        {
          "TrainNumber": 8,
          "TrainName": "Tezgam 8DN",
          "StationId": 124,
          "ArrivalTime": "05:47:00",
          "IsDayChanged": 1,
          "DayCount": 1,
          "DepartureTime": "05:49:00",
          "IsUp": 0,
          "OrderNumber": 26,
          "StationName": "Shahdadpur",
          "Latitude": 25.928209,
          "Longitude": 68.631591
        },
        {
          "TrainNumber": 8,
          "TrainName": "Tezgam 8DN",
          "StationId": 125,
          "ArrivalTime": "06:22:00",
          "IsDayChanged": 1,
          "DayCount": 1,
          "DepartureTime": "06:24:00",
          "IsUp": 0,
          "OrderNumber": 27,
          "StationName": "Tando Adam",
          "Latitude": 25.757395,
          "Longitude": 68.662203
        },
        {
          "TrainNumber": 8,
          "TrainName": "Tezgam 8DN",
          "StationId": 126,
          "ArrivalTime": "07:10:00",
          "IsDayChanged": 1,
          "DayCount": 1,
          "DepartureTime": "07:15:00",
          "IsUp": 0,
          "OrderNumber": 28,
          "StationName": "Hyderabad Jn",
          "Latitude": 25.381869,
          "Longitude": 68.373587
        },
        {
          "TrainNumber": 8,
          "TrainName": "Tezgam 8DN",
          "StationId": 127,
          "ArrivalTime": "09:15:00",
          "IsDayChanged": 1,
          "DayCount": 1,
          "DepartureTime": "09:17:00",
          "IsUp": 0,
          "OrderNumber": 29,
          "StationName": "Landhi Jn.",
          "Latitude": 24.850925,
          "Longitude": 67.211924
        },
        {
          "TrainNumber": 8,
          "TrainName": "Tezgam 8DN",
          "StationId": 128,
          "ArrivalTime": "09:55:00",
          "IsDayChanged": 1,
          "DayCount": 1,
          "DepartureTime": "09:57:00",
          "IsUp": 0,
          "OrderNumber": 30,
          "StationName": "Drigh Road",
          "Latitude": 24.886232,
          "Longitude": 67.125518
        },
        {
          "TrainNumber": 8,
          "TrainName": "Tezgam 8DN",
          "StationId": 129,
          "ArrivalTime": "10:30:00",
          "IsDayChanged": 1,
          "DayCount": 1,
          "DepartureTime": null,
          "IsUp": 0,
          "OrderNumber": 31,
          "StationName": "Karachi Cantt",
          "Latitude": 24.843004,
          "Longitude": 67.040354
        }
      ]
    },
    {
      "TrainId": 9,
      "stations": [
        {
          "TrainNumber": 9,
          "TrainName": "Allama Iqbal Express 9UP",
          "StationId": 129,
          "ArrivalTime": null,
          "IsDayChanged": 0,
          "DayCount": 0,
          "DepartureTime": "15:30:00",
          "IsUp": 1,
          "OrderNumber": 1,
          "StationName": "Karachi Cantt",
          "Latitude": 24.843004,
          "Longitude": 67.040354
        },
        {
          "TrainNumber": 9,
          "TrainName": "Allama Iqbal Express 9UP",
          "StationId": 128,
          "ArrivalTime": "15:50:00",
          "IsDayChanged": 0,
          "DayCount": 0,
          "DepartureTime": "15:52:00",
          "IsUp": 1,
          "OrderNumber": 2,
          "StationName": "Drigh Road",
          "Latitude": 24.886232,
          "Longitude": 67.125518
        },
        {
          "TrainNumber": 9,
          "TrainName": "Allama Iqbal Express 9UP",
          "StationId": 127,
          "ArrivalTime": "16:10:00",
          "IsDayChanged": null,
          "DayCount": null,
          "DepartureTime": "16:12:00",
          "IsUp": 1,
          "OrderNumber": 3,
          "StationName": "Landhi Jn.",
          "Latitude": 24.850925,
          "Longitude": 67.211924
        },
        {
          "TrainNumber": 9,
          "TrainName": "Allama Iqbal Express 9UP",
          "StationId": 173,
          "ArrivalTime": "17:56:00",
          "IsDayChanged": null,
          "DayCount": null,
          "DepartureTime": "17:58:00",
          "IsUp": 1,
          "OrderNumber": 4,
          "StationName": "Kotri Jn",
          "Latitude": 25.366867,
          "Longitude": 68.297367
        },
        {
          "TrainNumber": 9,
          "TrainName": "Allama Iqbal Express 9UP",
          "StationId": 126,
          "ArrivalTime": "18:15:00",
          "IsDayChanged": null,
          "DayCount": null,
          "DepartureTime": "18:20:00",
          "IsUp": 1,
          "OrderNumber": 5,
          "StationName": "Hyderabad Jn",
          "Latitude": 25.381869,
          "Longitude": 68.373587
        },
        {
          "TrainNumber": 9,
          "TrainName": "Allama Iqbal Express 9UP",
          "StationId": 125,
          "ArrivalTime": "19:19:00",
          "IsDayChanged": null,
          "DayCount": null,
          "DepartureTime": "19:21:00",
          "IsUp": 1,
          "OrderNumber": 6,
          "StationName": "Tando Adam",
          "Latitude": 25.757395,
          "Longitude": 68.662203
        },
        {
          "TrainNumber": 9,
          "TrainName": "Allama Iqbal Express 9UP",
          "StationId": 123,
          "ArrivalTime": "20:05:00",
          "IsDayChanged": 0,
          "DayCount": 0,
          "DepartureTime": "20:10:00",
          "IsUp": 1,
          "OrderNumber": 7,
          "StationName": "Nawabshah Jn.",
          "Latitude": 26.245775,
          "Longitude": 68.411685
        },
        {
          "TrainNumber": 9,
          "TrainName": "Allama Iqbal Express 9UP",
          "StationId": 174,
          "ArrivalTime": "20:59:00",
          "IsDayChanged": 0,
          "DayCount": 0,
          "DepartureTime": "21:01:00",
          "IsUp": 1,
          "OrderNumber": 8,
          "StationName": "Bhiria Road",
          "Latitude": 26.888821,
          "Longitude": 68.283914
        },
        {
          "TrainNumber": 9,
          "TrainName": "Allama Iqbal Express 9UP",
          "StationId": 122,
          "ArrivalTime": "21:20:00",
          "IsDayChanged": 0,
          "DayCount": 0,
          "DepartureTime": "21:22:00",
          "IsUp": 1,
          "OrderNumber": 9,
          "StationName": "Mehrabpur",
          "Latitude": 27.099493,
          "Longitude": 68.420952
        },
        {
          "TrainNumber": 9,
          "TrainName": "Allama Iqbal Express 9UP",
          "StationId": 215,
          "ArrivalTime": "21:50:00",
          "IsDayChanged": null,
          "DayCount": null,
          "DepartureTime": "21:52:00",
          "IsUp": 1,
          "OrderNumber": 10,
          "StationName": "Gambat",
          "Latitude": 27.337936,
          "Longitude": 68.544319
        },
        {
          "TrainNumber": 9,
          "TrainName": "Allama Iqbal Express 9UP",
          "StationId": 120,
          "ArrivalTime": "23:40:00",
          "IsDayChanged": null,
          "DayCount": null,
          "DepartureTime": "00:05:00",
          "IsUp": 1,
          "OrderNumber": 11,
          "StationName": "Rohri Jn.",
          "Latitude": 27.685755,
          "Longitude": 68.896448
        },
        {
          "TrainNumber": 9,
          "TrainName": "Allama Iqbal Express 9UP",
          "StationId": 136,
          "ArrivalTime": "01:10:00",
          "IsDayChanged": 1,
          "DayCount": 1,
          "DepartureTime": "01:12:00",
          "IsUp": 1,
          "OrderNumber": 12,
          "StationName": "Ghotki",
          "Latitude": 27.993889,
          "Longitude": 69.313555
        },
        {
          "TrainNumber": 9,
          "TrainName": "Allama Iqbal Express 9UP",
          "StationId": 138,
          "ArrivalTime": "02:48:00",
          "IsDayChanged": 1,
          "DayCount": 1,
          "DepartureTime": "02:50:00",
          "IsUp": 1,
          "OrderNumber": 13,
          "StationName": "Sadiqabad",
          "Latitude": 28.30212,
          "Longitude": 70.128168
        },
        {
          "TrainNumber": 9,
          "TrainName": "Allama Iqbal Express 9UP",
          "StationId": 119,
          "ArrivalTime": "03:18:00",
          "IsDayChanged": 1,
          "DayCount": 1,
          "DepartureTime": "03:20:00",
          "IsUp": 1,
          "OrderNumber": 14,
          "StationName": "Rahim Yar Khan",
          "Latitude": 28.422481,
          "Longitude": 70.30298
        },
        {
          "TrainNumber": 9,
          "TrainName": "Allama Iqbal Express 9UP",
          "StationId": 118,
          "ArrivalTime": "03:55:00",
          "IsDayChanged": 1,
          "DayCount": 1,
          "DepartureTime": "04:00:00",
          "IsUp": 1,
          "OrderNumber": 15,
          "StationName": "Khanpur Jn.",
          "Latitude": 28.64007281,
          "Longitude": 70.64912796
        },
        {
          "TrainNumber": 9,
          "TrainName": "Allama Iqbal Express 9UP",
          "StationId": 117,
          "ArrivalTime": "05:36:00",
          "IsDayChanged": 1,
          "DayCount": 1,
          "DepartureTime": "05:40:00",
          "IsUp": 1,
          "OrderNumber": 16,
          "StationName": "Bahawalpur",
          "Latitude": 29.402937,
          "Longitude": 71.65158
        },
        {
          "TrainNumber": 9,
          "TrainName": "Allama Iqbal Express 9UP",
          "StationId": 146,
          "ArrivalTime": "06:00:00",
          "IsDayChanged": 1,
          "DayCount": 1,
          "DepartureTime": "06:02:00",
          "IsUp": 1,
          "OrderNumber": 17,
          "StationName": "Lodhran Jn",
          "Latitude": 29.538817,
          "Longitude": 71.623284
        },
        {
          "TrainNumber": 9,
          "TrainName": "Allama Iqbal Express 9UP",
          "StationId": 200,
          "ArrivalTime": "06:26:00",
          "IsDayChanged": 1,
          "DayCount": 1,
          "DepartureTime": "06:28:00",
          "IsUp": 1,
          "OrderNumber": 18,
          "StationName": "Dunyapur",
          "Latitude": 29.806867,
          "Longitude": 71.720967
        },
        {
          "TrainNumber": 9,
          "TrainName": "Allama Iqbal Express 9UP",
          "StationId": 147,
          "ArrivalTime": "06:50:00",
          "IsDayChanged": 1,
          "DayCount": 1,
          "DepartureTime": "06:52:00",
          "IsUp": 1,
          "OrderNumber": 19,
          "StationName": "Jahania",
          "Latitude": 30.042372,
          "Longitude": 71.812736
        },
        {
          "TrainNumber": 9,
          "TrainName": "Allama Iqbal Express 9UP",
          "StationId": 115,
          "ArrivalTime": "07:25:00",
          "IsDayChanged": 1,
          "DayCount": 1,
          "DepartureTime": "07:50:00",
          "IsUp": 1,
          "OrderNumber": 20,
          "StationName": "Khanewal Jn",
          "Latitude": 30.30932445,
          "Longitude": 71.92858071
        },
        {
          "TrainNumber": 9,
          "TrainName": "Allama Iqbal Express 9UP",
          "StationId": 114,
          "ArrivalTime": "08:25:00",
          "IsDayChanged": 1,
          "DayCount": 1,
          "DepartureTime": "08:27:00",
          "IsUp": 1,
          "OrderNumber": 21,
          "StationName": "Mian Channu",
          "Latitude": 30.437812,
          "Longitude": 72.358115
        },
        {
          "TrainNumber": 9,
          "TrainName": "Allama Iqbal Express 9UP",
          "StationId": 113,
          "ArrivalTime": "09:00:00",
          "IsDayChanged": 1,
          "DayCount": 1,
          "DepartureTime": "09:02:00",
          "IsUp": 1,
          "OrderNumber": 22,
          "StationName": "Chichawatni",
          "Latitude": 30.535164,
          "Longitude": 72.690116
        },
        {
          "TrainNumber": 9,
          "TrainName": "Allama Iqbal Express 9UP",
          "StationId": 112,
          "ArrivalTime": "09:33:00",
          "IsDayChanged": 1,
          "DayCount": 1,
          "DepartureTime": "09:38:00",
          "IsUp": 1,
          "OrderNumber": 23,
          "StationName": "Sahiwal",
          "Latitude": 30.654502,
          "Longitude": 73.101085
        },
        {
          "TrainNumber": 9,
          "TrainName": "Allama Iqbal Express 9UP",
          "StationId": 111,
          "ArrivalTime": "10:05:00",
          "IsDayChanged": 1,
          "DayCount": 1,
          "DepartureTime": "10:07:00",
          "IsUp": 1,
          "OrderNumber": 24,
          "StationName": "Okara",
          "Latitude": 30.80542535,
          "Longitude": 73.44433495
        },
        {
          "TrainNumber": 9,
          "TrainName": "Allama Iqbal Express 9UP",
          "StationId": 110,
          "ArrivalTime": "10:40:00",
          "IsDayChanged": 1,
          "DayCount": 1,
          "DepartureTime": "10:42:00",
          "IsUp": 1,
          "OrderNumber": 25,
          "StationName": "Pattoki",
          "Latitude": 31.019176,
          "Longitude": 73.853793
        },
        {
          "TrainNumber": 9,
          "TrainName": "Allama Iqbal Express 9UP",
          "StationId": 164,
          "ArrivalTime": "11:04:00",
          "IsDayChanged": 1,
          "DayCount": 1,
          "DepartureTime": "11:06:00",
          "IsUp": 1,
          "OrderNumber": 26,
          "StationName": "Kot Radha Kishan",
          "Latitude": 31.169717,
          "Longitude": 74.09754
        },
        {
          "TrainNumber": 9,
          "TrainName": "Allama Iqbal Express 9UP",
          "StationId": 109,
          "ArrivalTime": "11:25:00",
          "IsDayChanged": 1,
          "DayCount": 1,
          "DepartureTime": "11:30:00",
          "IsUp": 1,
          "OrderNumber": 27,
          "StationName": "Raiwind Jn.",
          "Latitude": 31.251116,
          "Longitude": 74.222751
        },
        {
          "TrainNumber": 9,
          "TrainName": "Allama Iqbal Express 9UP",
          "StationId": 165,
          "ArrivalTime": "12:00:00",
          "IsDayChanged": 1,
          "DayCount": 1,
          "DepartureTime": "12:02:00",
          "IsUp": 1,
          "OrderNumber": 28,
          "StationName": "Kot Lakhpat",
          "Latitude": 31.459583,
          "Longitude": 74.338598
        },
        {
          "TrainNumber": 9,
          "TrainName": "Allama Iqbal Express 9UP",
          "StationId": 108,
          "ArrivalTime": "12:30:00",
          "IsDayChanged": 1,
          "DayCount": 1,
          "DepartureTime": "13:05:00",
          "IsUp": 1,
          "OrderNumber": 29,
          "StationName": "Lahore Jn.",
          "Latitude": 31.57769965,
          "Longitude": 74.33759112
        },
        {
          "TrainNumber": 9,
          "TrainName": "Allama Iqbal Express 9UP",
          "StationId": 201,
          "ArrivalTime": "13:22:00",
          "IsDayChanged": 1,
          "DayCount": 1,
          "DepartureTime": "13:24:00",
          "IsUp": 1,
          "OrderNumber": 30,
          "StationName": "Shahdara Bagh Jn",
          "Latitude": 31.626803,
          "Longitude": 74.290844
        },
        {
          "TrainNumber": 9,
          "TrainName": "Allama Iqbal Express 9UP",
          "StationId": 202,
          "ArrivalTime": "14:24:00",
          "IsDayChanged": 1,
          "DayCount": 1,
          "DepartureTime": "14:26:00",
          "IsUp": 1,
          "OrderNumber": 31,
          "StationName": "Narang",
          "Latitude": 31.902433,
          "Longitude": 74.515847
        },
        {
          "TrainNumber": 9,
          "TrainName": "Allama Iqbal Express 9UP",
          "StationId": 203,
          "ArrivalTime": "14:55:00",
          "IsDayChanged": 1,
          "DayCount": 1,
          "DepartureTime": "14:57:00",
          "IsUp": 1,
          "OrderNumber": 32,
          "StationName": "Baddomalhi",
          "Latitude": 31.983971,
          "Longitude": 74.657487
        },
        {
          "TrainNumber": 9,
          "TrainName": "Allama Iqbal Express 9UP",
          "StationId": 204,
          "ArrivalTime": "15:30:00",
          "IsDayChanged": 1,
          "DayCount": 1,
          "DepartureTime": "15:35:00",
          "IsUp": 1,
          "OrderNumber": 33,
          "StationName": "Narowal Jn",
          "Latitude": 32.100365,
          "Longitude": 74.864398
        },
        {
          "TrainNumber": 9,
          "TrainName": "Allama Iqbal Express 9UP",
          "StationId": 205,
          "ArrivalTime": "16:10:00",
          "IsDayChanged": 1,
          "DayCount": 1,
          "DepartureTime": "16:12:00",
          "IsUp": 1,
          "OrderNumber": 34,
          "StationName": "Qila Sobha Singh",
          "Latitude": 32.229829,
          "Longitude": 74.763155
        },
        {
          "TrainNumber": 9,
          "TrainName": "Allama Iqbal Express 9UP",
          "StationId": 206,
          "ArrivalTime": "16:36:00",
          "IsDayChanged": 1,
          "DayCount": 1,
          "DepartureTime": "16:38:00",
          "IsUp": 1,
          "OrderNumber": 35,
          "StationName": "Pasrur",
          "Latitude": 32.273454,
          "Longitude": 74.668527
        },
        {
          "TrainNumber": 9,
          "TrainName": "Allama Iqbal Express 9UP",
          "StationId": 207,
          "ArrivalTime": "17:00:00",
          "IsDayChanged": 1,
          "DayCount": 1,
          "DepartureTime": "17:02:00",
          "IsUp": 1,
          "OrderNumber": 36,
          "StationName": "Chawinda",
          "Latitude": 32.34345,
          "Longitude": 74.698528
        },
        {
          "TrainNumber": 9,
          "TrainName": "Allama Iqbal Express 9UP",
          "StationId": 208,
          "ArrivalTime": "17:50:00",
          "IsDayChanged": 1,
          "DayCount": 1,
          "DepartureTime": null,
          "IsUp": 1,
          "OrderNumber": 37,
          "StationName": "Sialkot Jn",
          "Latitude": 32.498472,
          "Longitude": 74.541959
        }
      ]
    },
    {
      "TrainId": 10,
      "stations": [
        {
          "TrainNumber": 10,
          "TrainName": "Allama Iqbal Express 10DN",
          "StationId": 208,
          "ArrivalTime": null,
          "IsDayChanged": 0,
          "DayCount": 0,
          "DepartureTime": "07:00:00",
          "IsUp": 0,
          "OrderNumber": 1,
          "StationName": "Sialkot Jn",
          "Latitude": 32.498472,
          "Longitude": 74.541959
        },
        {
          "TrainNumber": 10,
          "TrainName": "Allama Iqbal Express 10DN",
          "StationId": 207,
          "ArrivalTime": "07:34:00",
          "IsDayChanged": 0,
          "DayCount": 0,
          "DepartureTime": "07:36:00",
          "IsUp": 0,
          "OrderNumber": 2,
          "StationName": "Chawinda",
          "Latitude": 32.34345,
          "Longitude": 74.698528
        },
        {
          "TrainNumber": 10,
          "TrainName": "Allama Iqbal Express 10DN",
          "StationId": 206,
          "ArrivalTime": "07:58:00",
          "IsDayChanged": 0,
          "DayCount": 0,
          "DepartureTime": "08:00:00",
          "IsUp": 0,
          "OrderNumber": 3,
          "StationName": "Pasrur",
          "Latitude": 32.273454,
          "Longitude": 74.668527
        },
        {
          "TrainNumber": 10,
          "TrainName": "Allama Iqbal Express 10DN",
          "StationId": 205,
          "ArrivalTime": "08:24:00",
          "IsDayChanged": 0,
          "DayCount": 0,
          "DepartureTime": "08:26:00",
          "IsUp": 0,
          "OrderNumber": 4,
          "StationName": "Qila Sobha Singh",
          "Latitude": 32.229829,
          "Longitude": 74.763155
        },
        {
          "TrainNumber": 10,
          "TrainName": "Allama Iqbal Express 10DN",
          "StationId": 204,
          "ArrivalTime": "09:10:00",
          "IsDayChanged": 0,
          "DayCount": 0,
          "DepartureTime": "09:15:00",
          "IsUp": 0,
          "OrderNumber": 5,
          "StationName": "Narowal Jn",
          "Latitude": 32.100365,
          "Longitude": 74.864398
        },
        {
          "TrainNumber": 10,
          "TrainName": "Allama Iqbal Express 10DN",
          "StationId": 203,
          "ArrivalTime": "09:44:00",
          "IsDayChanged": 0,
          "DayCount": 0,
          "DepartureTime": "09:46:00",
          "IsUp": 0,
          "OrderNumber": 6,
          "StationName": "Baddomalhi",
          "Latitude": 31.983971,
          "Longitude": 74.657487
        },
        {
          "TrainNumber": 10,
          "TrainName": "Allama Iqbal Express 10DN",
          "StationId": 202,
          "ArrivalTime": "10:10:00",
          "IsDayChanged": 0,
          "DayCount": 0,
          "DepartureTime": "10:12:00",
          "IsUp": 0,
          "OrderNumber": 7,
          "StationName": "Narang",
          "Latitude": 31.902433,
          "Longitude": 74.515847
        },
        {
          "TrainNumber": 10,
          "TrainName": "Allama Iqbal Express 10DN",
          "StationId": 201,
          "ArrivalTime": "11:15:00",
          "IsDayChanged": 0,
          "DayCount": 0,
          "DepartureTime": "11:17:00",
          "IsUp": 0,
          "OrderNumber": 8,
          "StationName": "Shahdara Bagh Jn",
          "Latitude": 31.626803,
          "Longitude": 74.290844
        },
        {
          "TrainNumber": 10,
          "TrainName": "Allama Iqbal Express 10DN",
          "StationId": 108,
          "ArrivalTime": "11:35:00",
          "IsDayChanged": 0,
          "DayCount": 0,
          "DepartureTime": "12:10:00",
          "IsUp": 0,
          "OrderNumber": 9,
          "StationName": "Lahore Jn.",
          "Latitude": 31.57769965,
          "Longitude": 74.33759112
        },
        {
          "TrainNumber": 10,
          "TrainName": "Allama Iqbal Express 10DN",
          "StationId": 165,
          "ArrivalTime": "12:28:00",
          "IsDayChanged": 0,
          "DayCount": 0,
          "DepartureTime": "12:30:00",
          "IsUp": 0,
          "OrderNumber": 10,
          "StationName": "Kot Lakhpat",
          "Latitude": 31.459583,
          "Longitude": 74.338598
        },
        {
          "TrainNumber": 10,
          "TrainName": "Allama Iqbal Express 10DN",
          "StationId": 109,
          "ArrivalTime": "12:55:00",
          "IsDayChanged": 0,
          "DayCount": 0,
          "DepartureTime": "13:00:00",
          "IsUp": 0,
          "OrderNumber": 11,
          "StationName": "Raiwind Jn.",
          "Latitude": 31.251116,
          "Longitude": 74.222751
        },
        {
          "TrainNumber": 10,
          "TrainName": "Allama Iqbal Express 10DN",
          "StationId": 164,
          "ArrivalTime": "13:15:00",
          "IsDayChanged": 0,
          "DayCount": 0,
          "DepartureTime": "13:17:00",
          "IsUp": 0,
          "OrderNumber": 12,
          "StationName": "Kot Radha Kishan",
          "Latitude": 31.169717,
          "Longitude": 74.09754
        },